{"type": "FeatureCollection", "features": [{"type": "Feature", "geometry": {"type": "Point", "coordinates": [-89.701734, 36.231475]}, "properties": {"name": "Pemiscot County Port Authority, Fertilizer Dock.", "waterway": "Mississippi River, Mouth of Ohio River to Baton Rouge, LA", "city": "Caruthersville", "state": "MO"}}, {"type": "Feature", "geometry": {"type": "Point", "coordinates": [-90.09851, 35.098607]}, "properties": {"name": "Helm Fertilizer Terminal, Memphis Liquid-Bulk Dock.", "waterway": "Memphis Harbor, TN", "city": "Memphis", "state": "TN"}}, {"type": "Feature", "geometry": {"type": "Point", "coordinates": [-89.549444, 36.580556]}, "properties": {"name": "River Bend Ag, New Madrid Dry-Bulk Fertilizer Dock.", "waterway": "Mississippi River, Mouth of Ohio River to Baton Rouge, LA", "city": "New Madrid", "state": "MO"}}, {"type": "Feature", "geometry": {"type": "Point", "coordinates": [-90.876588, 32.381246]}, "properties": {"name": "Conagra International Fertilizer Co. Wharf", "waterway": "Yazoo River, MS Mouth of", "city": "Vicksburg", "state": "MS"}}, {"type": "Feature", "geometry": {"type": "Point", "coordinates": [-91.021887, 33.822203]}, "properties": {"name": "Jimmy Sanders, Rosedale, Fertilizer Dock", "waterway": "Mississippi River, Mouth of Ohio River to Baton Rouge, LA", "city": "Rosedale", "state": "MS"}}, {"type": "Feature", "geometry": {"type": "Point", "coordinates": [-89.744722, 40.554167]}, "properties": {"name": "CF Industries, Peoria Warehouse Coal Dock.", "waterway": "Illinois River, IL", "city": "Mapleton", "state": "IL"}}, {"type": "Feature", "geometry": {"type": "Point", "coordinates": [-89.749722, 40.554444]}, "properties": {"name": "CF Industries, Peoria Warehouse No. 1 Dock.", "waterway": "Illinois River, IL", "city": "Mapleton", "state": "IL"}}, {"type": "Feature", "geometry": {"type": "Point", "coordinates": [-89.75, 40.555278]}, "properties": {"name": "CF Industries, Peoria Warehouse No. 2 Dock.", "waterway": "Illinois River, IL", "city": "Mapleton", "state": "IL"}}, {"type": "Feature", "geometry": {"type": "Point", "coordinates": [-90.098098, 35.098821]}, "properties": {"name": "Helm Fertilizer Terminal, Memphis Dry-Bulk Dock.", "waterway": "Memphis Harbor, TN", "city": "Memphis", "state": "TN"}}, {"type": "Feature", "geometry": {"type": "Point", "coordinates": [-87.649167, 37.815556]}, "properties": {"name": "Mosaic Company", "waterway": "Ohio River", "city": "Henderson", "state": "KY"}}, {"type": "Feature", "geometry": {"type": "Point", "coordinates": [-90.121444, 38.856944]}, "properties": {"name": "Koch Fertilizer Storage and Terminal, Wood River Terminal", "waterway": "Mississippi River, Minneapolis, MN to Mouth of Missouri River", "city": "East Alton", "state": "IL"}}, {"type": "Feature", "geometry": {"type": "Point", "coordinates": [-91.438611, 39.843611]}, "properties": {"name": "Northeast Missouri Electric Power Cooperative Palmyra, Fertilizer", "waterway": "Mississippi River, Minneapolis, MN to Mouth of Missouri River", "city": "Palmyra", "state": "MO"}}, {"type": "Feature", "geometry": {"type": "Point", "coordinates": [-91.513333, 40.1225]}, "properties": {"name": "Tri-state Fertilizer Co., Canton Terminal Dock", "waterway": "Mississippi River, Minneapolis, MN to Mouth of Missouri River", "city": "Canton", "state": "MO"}}, {"type": "Feature", "geometry": {"type": "Point", "coordinates": [-89.149167, 41.316944]}, "properties": {"name": "Cf Industries, Peru Nitrogen Terminal Dock", "waterway": "Illinois River, IL", "city": "Peru", "state": "IL"}}, {"type": "Feature", "geometry": {"type": "Point", "coordinates": [-95.73806, 36.24083]}, "properties": {"name": "Catoosa Fertilizer Co Docks", "waterway": "Verdigris River, AR", "city": "Catoosa", "state": "OK"}}, {"type": "Feature", "geometry": {"type": "Point", "coordinates": [-89.619167, 40.635556]}, "properties": {"name": "Koch Nitrogen Co., North Pekin Terminal Barge Dock", "waterway": "Illinois River, IL", "city": "Pekin", "state": "IL"}}, {"type": "Feature", "geometry": {"type": "Point", "coordinates": [-89.75, 40.55528]}, "properties": {"name": "Cf Industries, Peoria Warehouse Docks", "waterway": "Illinois River, IL", "city": "Kingston Mines", "state": "IL"}}, {"type": "Feature", "geometry": {"type": "Point", "coordinates": [-89.344974, 41.258856]}, "properties": {"name": "Uan Liquid Fertilizer Dock Hannepin, Il", "waterway": "Illinois River, IL", "city": "Hennepin", "state": "IL"}}, {"type": "Feature", "geometry": {"type": "Point", "coordinates": [-91.114236, 40.746262]}, "properties": {"name": "Koch Fertilizer Storage & Terminal Burlington Ammonia Terminal Dk", "waterway": "Mississippi River, Minneapolis, MN to Mouth of Missouri River", "city": "Burlington", "state": "IA"}}, {"type": "Feature", "geometry": {"type": "Point", "coordinates": [-89.335278, 41.125]}, "properties": {"name": "Koch Nitrogen Co., Henry Terminal Dock", "waterway": "Illinois River, IL", "city": "Henry", "state": "IL"}}, {"type": "Feature", "geometry": {"type": "Point", "coordinates": [-88.588611, 41.302778]}, "properties": {"name": "Cf Industries, Seneca Terminal Dock", "waterway": "Illinois River, IL", "city": "Seneca", "state": "IL"}}, {"type": "Feature", "geometry": {"type": "Point", "coordinates": [-89.776944, 40.553611]}, "properties": {"name": "Cf Industries, Kingston Mines Terminal Dock", "waterway": "Illinois River, IL", "city": "Kingston Mines", "state": "IL"}}, {"type": "Feature", "geometry": {"type": "Point", "coordinates": [-89.74613, 40.55061]}, "properties": {"name": "Cf Industries, Peoria Warehouse Coal Dock", "waterway": "Illinois River, IL", "city": "Manito", "state": "IL"}}, {"type": "Feature", "geometry": {"type": "Point", "coordinates": [-91.981667, 34.275278]}, "properties": {"name": "Pine Bluff Ar Macrosource Fertilizer", "waterway": "Arkansas River, AR", "city": "Pine Bluff", "state": "AR"}}, {"type": "Feature", "geometry": {"type": "Point", "coordinates": [-91.09096, 33.377]}, "properties": {"name": "Macrosource Fertilizer Greenville Wharf", "waterway": "Mississippi River, Mouth of Ohio River to Baton Rouge, LA", "city": "Greenville", "state": "MS"}}, {"type": "Feature", "geometry": {"type": "Point", "coordinates": [-90.614444, 34.414444]}, "properties": {"name": "Helm Fertilizer, Helena Terminal Dock", "waterway": "Mississippi River, Mouth of Ohio River to Baton Rouge, LA", "city": "Helena", "state": "AR"}}, {"type": "Feature", "geometry": {"type": "Point", "coordinates": [-89.553333, 36.578333]}, "properties": {"name": "River Bend Ag, New Madrid Liquid Fertilizer Dock (cwis 110502)", "waterway": "Mississippi River, Mouth of Ohio River to Baton Rouge, LA", "city": "New Madrid", "state": "MO"}}, {"type": "Feature", "geometry": {"type": "Point", "coordinates": [-90.591313, 42.457337]}, "properties": {"name": "Alliant Energy Transportation, Logistics Park Dubuque, Fertilizer Wharf", "waterway": "Mississippi River, Minneapolis, MN to Mouth of Missouri River", "city": "East Dubuque", "state": "IL"}}, {"type": "Feature", "geometry": {"type": "Point", "coordinates": [-84.646976, 39.089296]}, "properties": {"name": "Growmark Fertilizer", "waterway": "Ohio River", "city": "Cincinnati", "state": "OH"}}, {"type": "Feature", "geometry": {"type": "Point", "coordinates": [-95.737017, 36.239628]}, "properties": {"name": "Macrosource Fertilizer", "waterway": "Verdigris River, AR", "city": "Catoosa", "state": "OK"}}, {"type": "Feature", "geometry": {"type": "Point", "coordinates": [-85.72056, 38.27778]}, "properties": {"name": "Cgb Fertilizer Dock Jeffersonville", "waterway": "Ohio River", "city": "Jeffersonville", "state": "KY"}}, {"type": "Feature", "geometry": {"type": "Point", "coordinates": [-95.7291, 36.2272]}, "properties": {"name": "Cf Industries Catoosa Ok", "waterway": "Verdigris River, AR", "city": "nan", "state": "OK"}}, {"type": "Feature", "geometry": {"type": "Point", "coordinates": [-88.073639, 37.061604]}, "properties": {"name": "Eddyville Riverport and Industrial Development Authority (Dry Fertilizer)", "waterway": "Cumberland River, Mouth to Nashville, TN", "city": "Eddyville", "state": "KY"}}]}