registry_id,fac_name,fac_street,fac_city,fac_state,fac_zip,fac_county,fac_epa_region,latitude,longitude,naics_code
110031019975,ANCHORAGE SAND AND GRAVEL KLATT RD FACILITY,11155 LANG ST,ANCHORAGE,AK,99515,ANCHORAGE,10.0,61.120796,-149.874372,327390
110008998549,WELLS & WELLS SEPTIC TANK MFG AND PIPE SALES,3701 BYNUM LEATHERWOOD_RD,ANNISTON,AL,36201,CALHOUN,4.0,33.69609,-85.87976,327390
110012229374,NOV AMERON,1860 ELECTRONICS DRIVE,ANNISTON,AL,36207,CALHOUN,4.0,33.6185,-85.79649,327390
110006652201,"RANKIN CONSTRUCTION AND SEPTIC TANK SERVICE, L.L.C.",2770 US 231 HIGHWAY 231,ARAB,AL,35016,CULLMAN,4.0,34.296111,-86.507778,327390
110000604971,WELLBORN CABINETS INC,38669 HWY 77 S,ASHLAND,AL,36251,CLAY,4.0,33.252092,-85.816944,327390
110006792248,BALDWIN LIGHTING INC,15208 BRADY RD EXT,BAY MINETTE,AL,36507,BALDWIN,4.0,30.866362,-87.760774,327390
110025355746,"MODULAR CONNECTIONS, LLC",1090 INDUSTRIAL BLVD,BESSEMER,AL,35022,JEFFERSON,4.0,33.366816,-86.980227,327390
110001714360,"KIRKPATRICK CONCRETE,INC.",2026 6TH AVENUE NORTH,BESSEMER,AL,35020,JEFFERSON,4.0,33.405223,-86.956325,327390
110071540778,SUPERIOR CONCRETE PRODUCTS,2523 29TH AVENUE NORTH,BIRMINGHAM,AL,35207,JEFFERSON,4.0,33.550646,-86.81809,327390
110018854060,READY MIX USA LAKESHORE FACILITY,911 WENONAH ROAD,BIRMINGHAM,AL,35221,JEFFERSON,4.0,33.433853,-86.906205,327390
110021339719,"GRASSELLI CONCRETE PRODUCTS CO, INC.","4200 JEFFERSON AVENUE, S.W.",BIRMINGHAM,AL,35221,JEFFERSON,4.0,33.44959,-86.90214,327390
110040971115,SHERMAN READY MIX CONCRETE CO.(N.BIRMINGHAM),700 NORTH 41ST STREE,BIRMINGHAM,AL,35222,JEFFERSON,4.0,33.53355,-86.77675,327390
110070262528,JOHNSON BROS PRECAST FACILITY,1503 50TH STREET STREET N,BIRMINGHAM,AL,35203,JEFFERSON COUNTY,4.0,33.549283,-86.7614,327390
110007348012,"READY MIX USA,LLC",905 14TH STREET NORTH,BIRMINGHAM,AL,35203,JEFFERSON,4.0,33.518298,-86.81934,327390
110006548487,"READY MIX USA,LLC",2653 RUFFNER RD,BIRMINGHAM,AL,35210,JEFFERSON,4.0,33.578,-86.67005,327390
110001716652,"QUIKRETE BIRMINGHAM, INC.",301 CITATION COURT,BIRMINGHAM,AL,35211,JEFFERSON,4.0,33.44719,-86.84853,327390
110022811359,HANSON PIPE & PRODUCTS SOUTHEAST INC TARRANT,3898 INDUSTRIAL DR,BIRMINGHAM,AL,35217,JEFFERSON,4.0,33.61849,-86.75386,327390
110010107295,SHERMAN INDUSTRIES INC.CITY PLANT,1130 2ND AVENUE SOUTH,BIRMINGHAM,AL,35233,JEFFERSON,4.0,33.505485,-86.815807,327390
110066871488,LAKESHORE BATCH PLANT,911 WENONAH ROAD,BIRMINGHAM,AL,35221,JEFFERSON,4.0,33.433853,-86.906205,327390
110022472910,HANSON PIPE & PRODUCTS LLC  -  FAYETTE AVE,3250 FAYETTE AVE,BIRMINGHAM,AL,35208,JEFFERSON,4.0,33.49666,-86.86689,327390
110043993060,CULLMAN PLANT,9415 HWY 157,CULLMAN,AL,35057,CULLMAN,4.0,34.236623,-86.930995,327390
110000367576,SUN ADHESIVES,1001 BELTLINE HWY,DECATUR,AL,35601,MORGAN,4.0,34.561297,-86.976407,327390
110002105659,KITCHEN & BATH CENTER,16382 GREENO RD.,FAIRHOPE,AL,36532,BALDWIN,4.0,30.46365,-87.8862,327390
110020073588,IKARD SEPTIC MANUFACTURING AND SALES,5600 HIGHWAY 53,HARVEST,AL,35749,MADISON,4.0,34.83684,-86.70505,327390
110033019864,HANSON PIPE & PRODUCTS PRECAST,5750 STRINGFIELD ROAD,HUNTSVILLE,AL,35806,MADISON,4.0,34.78126,-86.63605,327390
110010107286,HEIDELBERG MATERIALS SOUTHEAST AGG LLC - LEEDS PLANT,1704 PARKWAY DRIVE SE,LEEDS,AL,35094,JEFFERSON,4.0,33.544488,-86.522934,327390
110020517966,HANSON PIPE & PRODUCTS SOUTHEAST INC MOBILE,991 N SCHILLINGER RD,MOBILE,AL,36608,MOBILE,4.0,30.709333,-88.227662,327390
110006548619,GATE PRECAST COMPANY,2440 SOUTH ALABAMA AVENUE,MONROEVILLE,AL,36460,MONROE,4.0,31.490468,-87.322427,327390
110022811386,HANSON PIPE & PRODUCTS SOUTHEAST INC MONTGOMERY,1616 PARALLEL STREET,MONTGOMERY,AL,36104,MONTGOMERY,4.0,32.40645,-86.32163,327390
110001716153,"CEMEX SOUTHEAST, LLC",55 DIVISION ST,MONTGOMERY,AL,36104,MONTGOMERY,4.0,32.40716,-86.3215,327390
110006652096,CASTONE CORPORATION,1511 OLD COLUMBUS ROAD,OPELIKA,AL,36804,LEE,4.0,32.618681,-85.344576,327390
110022811340,HANSON PIPE & PRODUCTS SOUTHEAST INC PELHAM,400 INDUSTRIAL PARK DR,PELHAM,AL,35124,SHELBY,4.0,33.29705,-86.81973,327390
110025358128,HANSON PIPE AND PRECAST LLC,380 INDUSTRIAL PARK DR,PELHAM,AL,35124,SHELBY,4.0,33.297032,-86.819435,327390
110070248977,JAMES HARDIE BLDG PROD. - PRATTVILLE,906 SOUTH PARK LANE,PRATTVILLE,AL,36067,AUTAUGA,4.0,32.4697,-86.44565,327390
110070398603,JAMES HARDIE BUILDING PRODUCTS INC,906 SOUTH PARK LANE,PRATTVILLE,AL,36067,AUTAUGA,4.0,32.4697,-86.44565,327390
110071287405,JAMES HARDIE PRATTVILLE,906 S PARK LN,PRATTVILLE,AL,36066,AUTAUGA COUNTY,4.0,32.433109,-86.436758,327390
110009039343,GULF WILBERT VAULT CO INC,5100 KOOIMAN ROAD,THEODORE,AL,36582,MOBILE,4.0,30.57453,-88.15962,327390
110006792462,PITT CONCRETE PRODUCTS INC,20564 COUNTY ROAD 460,TRINITY,AL,35673,MORGAN,4.0,34.528168,-87.201246,327390
110057963299,"VALMONT NEWMARK, INC",3129 35TH STREET,TUSCALOOSA,AL,35401,TUSCALOOSA,4.0,33.178469,-87.576783,327390
110022811368,HANSON PIPE & PRODUCTS SOUTHEAST INC,3101 35TH ST,TUSCALOOSA,AL,35401,TUSCALOOSA,4.0,33.17837,-87.57459,327390
110038613220,THE SEFA GROUP,900 COLBERT STEAM PLANT RD,TUSCUMBIA,AL,35674,COLBERT,4.0,34.7316,-87.85537,327390
110024943702,LITTLE ROCK WILBERT BURIAL VAULT CO.,12705 ALEXANDER ROAD,ALEXANDER,AR,72002,PULASKI,6.0,34.641083,-92.419917,327390
110037264778,MASTER MADE TANKS INC. - BOONEVILLE,530 EAST MAIN STREET,BOONEVILLE,AR,72927,LOGAN,6.0,35.14,-93.914167,327390
110022287167,"CORESLAB STRUCTURES (ARK), INC.",1370 STURGIS ROAD,CONWAY,AR,72034,FAULKNER,6.0,35.06075,-92.428694,327390
110025060993,MASTER MADE TANKS INC. - DANVILLE,10419 HWY 27 NORTH,DANVILLE,AR,72833,YELL,6.0,35.06773,-93.39112,327390
110001710649,PRECISION PACKAGING,4907 RIVERFRONT DR,FORT SMITH,AR,72904,SEBASTIAN,6.0,35.432111,-94.375694,327390
110071719622,PRECISION PACKAGING INC,4907 CLAYTON EXPRESSWAY,FORT SMITH,AR,72914,SEBASTIAN,6.0,35.43181,-94.37625,327390
110025114971,R & R READY MIX,3185 HWY 62/US412,HARDY,AR,72542,SHARP,6.0,36.293806,-91.505194,327390
110025022883,JOHNSON'S CONCRETE PRODUCTS,230 HEBER SPRINGS RD W,HEBER SPRINGS,AR,72543,CLEBURNE,6.0,35.47325,-92.029167,327390
110024982107,VICKERS TANK COMPANY,201 VICKERS PLACE,HOT SPRINGS,AR,71913,GARLAND,6.0,34.487389,-93.089306,327390
110025143681,"SCURLOCK INDUSTRIES OFJONESBORO, INC.",800 WEST JOHNSON AVE.,JONESBORO,AR,72403,CRAIGHEAD,6.0,35.845833,-90.714167,327390
110025010510,"WILBERT FUNERAL SERVICES, INC.",24602 HWY 22,LAVACA,AR,72941,SEBASTIAN,6.0,35.305722,-94.169611,327390
110025124185,"PETERSON CONCRETE TANK CO, INC.",18010 MCARTHUR DR.,NORTH LITTLE ROCK,AR,72118,PULASKI,6.0,34.886704,-92.369407,327390
110001707378,PRECISION PACKAGING INC. - NORTH LITTLE ROCK,315 PHILLIPS ROAD,NORTH LITTLE ROCK,AR,72117,PULASKI,6.0,34.758056,-92.222194,327390
110064344525,"PARAGOULD VAULT COMPANY, INC.",3001 EAST KINGSHIGHWAY,PARAGOULD,AR,72450,GREENE,6.0,36.052778,-90.444444,327390
110025005713,WHITTEN CONCRETE CO,2703 WEST 2ND,PINE BLUFF,AR,71601,JEFFERSON,6.0,34.2287,-92.03118,327390
110025122267,PETERSON CONCRETE SEPTIC TANK,6227 HWY 64 E,POTTSVILLE,AR,72858,POPE,6.0,35.25275,-93.044694,327390
110069479567,IHC INDUSTRIAL ACTIVITY AREA,10241 US HWY 67,TEXARKANA,AR,71854,MILLER,6.0,33.530222,-93.913944,327390
110020514987,HANSON PIPE & PRODUCTS SOUTHEAST INC WEST MEMPHIS,501 E JEFFERSON ST,WEST MEMPHIS,AR,72301,CRITTENDEN,6.0,35.13548,-90.17962,327390
110070200750,WEBBER CONSTRUCTION YARD,6518 W. BARRAQUE ST,WHITE HALL,AR,71602,JEFFERSON,6.0,34.226639,-92.075611,327390
110033148975,PINE BLUFF SAND & GRAVEL - WHITE HALL PLANT,8105 SHERIDAN ROAD,WHITE HALL,AR,71602,JEFFERSON,6.0,34.260293,-92.101545,327390
110039018728,ACO POLYMER PRODUCTS INC - AZ,825 W BEECHCRAFT ST,CASA GRANDE,AZ,85122,PINAL,9.0,32.946804,-111.769002,327390
110000471025,WESTILE INC,1742 S ROOF TILE RD,CASA GRANDE,AZ,85193,PINAL,9.0,32.86294,-111.80244,327390
110040964775,JENSEN PRECAST CASA GRANDE PLANT #7,1441 N V I P BLVD,CASA GRANDE,AZ,85122,PINAL,9.0,32.88785,-111.7858,327390
110015945619,OLDCASTLE PRECAST INC,411 E FRYE RD,CHANDLER,AZ,85225,MARICOPA,9.0,33.2989,-111.83621,327390
110021305602,MASTER BLOCK INC,12620 W BUTLER DR,EL MIRAGE,AZ,85335,MARICOPA,9.0,33.55828,-112.33233,327390
110071903202,DESERT READY MIX,W SOUTHERN AVE,GOODYEAR,AZ,85338,,9.0,,,327390
110040911421,W R MEADOWS OF AZ INC,2636 S SARIVAL AVE,GOODYEAR,AZ,85338,MARICOPA,9.0,33.422645,-112.409442,327390
110060280592,JENSEN PRECAST,2410 W BROADWAY RD,PHOENIX,AZ,85041,MARICOPA,9.0,33.40673,-112.11056,327390
110000470419,SUPERLITE BLOCK,4626 N 42ND AVE,PHOENIX,AZ,85019,MARICOPA,9.0,33.504104,-112.148696,327390
110070714098,"OLDCASTLE INFRASTRUCTURE, INC. - PHOENIX OES",3044A S 35TH AVE,PHOENIX,AZ,85009,MARICOPA COUNTY,9.0,33.42003,-112.135113,327390
110021303445,STACO ARCHITECTURAL ROOF TILE,3530  E ELWOOD ST,PHOENIX,AZ,85040,MARICOPA,9.0,33.41455,-112.00537,327390
110000470758,BORAL ROOFING LLC,1832 S 51ST AVE,PHOENIX,AZ,85043,MARICOPA,9.0,33.43069,-112.16922,327390
110002585658,VAN HORN AVIATION LLC,1510 W DRAKE DR,TEMPE,AZ,85283,MARICOPA,9.0,33.35512,-111.96402,327390
110020687149,HANSON ROOF TILE TOLLESON,8800 WEST BUCKEYE ROAD,TOLLESON,AZ,85353,MARICOPA,9.0,33.436299,-112.248914,327390
110039375146,STRONGGO,3296 E HEMISPHERE LOOP,TUCSON,AZ,85706,PIMA,9.0,32.13782,-110.92324,327390
110030999702,JENSEN PRECAST,4801 E WYOMING ST,TUCSON,AZ,85706,PIMA,9.0,32.15949,-110.88822,327390
110071766809,CLARK PACIFIC ADELANTO PRECAST PLANT,9367 HOLLY RD.,ADELANTO,CA,92301,SAN BERNARDINO,9.0,34.54291,-117.45979,327390
110002065229,BORAL STONE PRODUCTS LLC,350 TOWER ROAD,AMERICAN CANYON,CA,94503,NAPA,9.0,38.21154,-122.26193,327390
110071806007,SELECTCRETE INC,4301 FOSTER AVE,BAKERSFIELD,CA,93308,KERN COUNTY,9.0,35.400146,-119.049936,327390
110042003346,VALMONT NEWMARK INC.,3970 LENWOOD RD,BARSTOW,CA,92311,SAN BERNARDINO,9.0,34.88107,-117.11806,327390
110000474193,CUSTOM BUILDING PRODUCTS INC,6511 SALT LAKE AVE.,BELL,CA,90201,LOS ANGELES,9.0,33.979149,-118.204332,327390
110071936816,NEWMAN & SONS INC.,250 E SANTA ANA AVE,BLOOMINGTON,CA,92316,SAN BERNARDINO,9.0,,,327390
110054284430,"K & D ENTERPRISES, INC",4107 MORGAN RD,CERES,CA,95307,STANISLAUS,9.0,37.57841,-120.97688,327390
110070307080,PIRANHA PIPE AND PRECAST,16000 AVE 25,CHOWCHILLA,CA,93610,,9.0,37.110304,-120.251305,327390
110070455916,FLOYD JOHNSTON CONSTRUCTION CO INC,2301 HERNDON AVE,CLOVIS,CA,93611,FRESNO,9.0,36.83842,-119.67231,327390
110058349719,CLOVIS GUNITE & MATERIALS INC,1509 MENLO AVE,CLOVIS,CA,93611,FRESNO,9.0,36.83147,-119.68858,327390
110010480639,GRANITE CONSTRUCTION COMPANY,38940 HIGHWAY 33,COALINGA,CA,93210,FRESNO,9.0,36.17501,-120.42368,327390
110002711049,"OLDCASTLE WESTILE, INC.",1745 SAMPSON AVE,CORONA,CA,92879,RIVERSIDE,9.0,33.87929,-117.5317,327390
110054288310,GIBSON'S IRRIGATION SYSTEMS,1702 GLENWOOD ST,DELANO,CA,00000,KERN,9.0,35.77832,-119.25069,327390
110071804537,"CENTRAL VALLEY CONCRETE, INC.",4200 LESTER RD,DENAIR,CA,95316,STANISLAUS COUNTY,9.0,37.531008,-120.802598,327390
110071812086,BELLINGHAM MARINE INDUSTRIES,8810 SPARLING LANE,DIXON,CA,95620,SOLANO COUNTY,9.0,38.45982,-121.81941,327390
110013819298,HANSON ROOF TILE,8668 SPARLING LANE,DIXON,CA,95620,SOLANO,9.0,38.49169,-121.79975,327390
110000770489,AMERON INTERNATIONAL,12455 ARROW ROUTE,ETIWANDA,CA,91739,SAN BERNARDINO,9.0,34.09902,-117.53039,327390
110037147762,SOUTH VALLEY MATERIALS INC,1132 N BELMONT RD,EXETER,CA,93221,TULARE,9.0,36.303887,-119.153641,327390
110041411870,SANNIPOLI CORPORATION,4989A PEABODY ROAD,FAIRFIELD,CA,94533,SOLANO,9.0,38.28895,-121.97028,327390
110041099824,AMERON POLE PRODUCTS,1020 'B' STREET,FILLMORE,CA,93015,VENTURA,9.0,34.4116,-118.9257,327390
110069243063,NOV AMERON FILLMORE CONCRETE POLE MANUFACTURING,1020 B ST,FILLMORE,CA,93015,VENTURA COUNTY,9.0,34.4116,-118.9257,327390
110012700826,JENSEN PRECAST,14221 SAN BERNARDINO AVENUE,FONTANA,CA,92335,SAN BERNARDINO,9.0,34.07723,-117.49487,327390
110037147511,OLDCASTLE PRECAST INC,10774 POPLAR AVE,FONTANA,CA,92337,SAN BERNARDINO,9.0,34.05799,-117.46257,327390
110002144420,OLDCASTLE PRECAST,10650  HEMLOCK AVE,FONTANA,CA,92335,SAN BERNARDINO,9.0,34.0602,-117.47563,327390
110070810463,"CREATIVE STONE MFG,. INC.",13942 JURUPA AVE,FONTANA,CA,92337,SAN BERNARDINO,,34.048194,-117.501924,327390
110022411460,HANSON ROOF TILE - FONTANA,10650 POPLAR AVE,FONTANA,CA,92337,SAN BERNARDINO,9.0,34.06025,-117.46255,327390
110070813942,US MIX,14578 WHITTRAM AVE,FONTANA,CA,92335,SAN BERNARDINO COUNTY,9.0,34.095972,-117.48675,327390
110071775750,JAMES HARDIE BUILDING PRODUCTS INC,10901  ELM AVE,FONTANA,CA,92337,SAN BERNARDINO,9.0,34.05,-117.46102,327390
110000479349,JAMES HARDIE BUILDING PRODUCTS,10901 ELM AVE.,FONTANA,CA,92337,SAN BERNARDINO,9.0,34.05554,-117.46689,327390
110071775371,CLARK PACIFIC,13592  SLOVER AVE,FONTANA,CA,92335,SAN BERNARDINO,9.0,34.06104,-117.50905,327390
110001173275,CHRISTY PRODUCTS,44100 CHRISTY ST,FREMONT,CA,94538,ALAMEDA,9.0,37.50146,-121.96602,327390
110070469643,OLDCASTLE BUILDING ENVELOPE,6850 STEVENSON BLVD,FREMONT,CA,94538,ALAMEDA,9.0,37.5084,-121.9956,327390
110002759168,BORAL ROOFING,9508 S HARLAN RD,FRENCH CAMP,CA,95231,SAN JOAQUIN,9.0,37.8723,-121.27691,327390
110058359574,PAREXLAHABRA INC,11290 VALLEJO CT,FRENCH CAMP,CA,95231,SAN JOAQUIN,9.0,37.8563,-121.27007,327390
110009552331,INDUSTRIAL ASPHALT,13475 NORTH FRIANT ROAD,FRESNO,CA,93720,FRESNO,9.0,36.92771,-119.73207,327390
110013883896,CALMAT CO FRESNO,11599 NORTH FRIANT ROAD,FRESNO,CA,93730,FRESNO,9.0,36.90309,-119.75752,327390
110058331960,LEHIGH SOUTHWEST CEMENT COMPANY,3440 S WILLOW,FRESNO,CA,93725,FRESNO,9.0,36.68561,-119.72487,327390
110054259262,HYDRO CONDUIT CORP DBA RINKER MATERIALS,4150 N BRAWLEY AVE,FRESNO,CA,93722,FRESNO,9.0,36.79736,-119.86005,327390
110037148342,CALPORTLAND COMPANY,410 N THORNE AVE,FRESNO,CA,93706,FRESNO,9.0,36.74855,-119.81306,327390
110012701594,BORAL ROOFING LLC,6500 BREM LANE,GILROY,CA,95020,SANTA CLARA,9.0,36.99751,-121.55478,327390
110071752540,"UNITED RENTALS NORTHWEST, INC",6390 CHESTNUT ST,GILROY,CA,95020,SANTA CLARA,9.0,36.99257,-121.55861,327390
110065966404,ORCO BLENDED PRODUCTS  INC,27347 E THIRD ST,HIGHLAND,CA,92346,SAN BERNARDINO,9.0,34.10595,-117.20774,327390
110065266651,PRO CAST PRODUCTS INC,27417 E 3RD ST,HIGHLAND,CA,92346,SAN BERNARDINO COUNTY,9.0,34.10605,-117.20743,327390
110031018609,HANSON SPANCRETE PACIFIC INC. - IRWINDALE,13131 LOS ANGELES ST,IRWINDALE,CA,91706,LOS ANGELES,9.0,34.09199,-117.98563,327390
110022904990,HCM UTAH INC,16005 PHOEBE AVE,LA MIRADA,CA,90638,LOS ANGELES,9.0,33.88614,-118.02157,327390
110002317859,LUCAS SITE,14724 E. PROCTOR AVE.,LA PUENTE,CA,91746,LOS ANGELES,9.0,34.030473,-117.975463,327390
110070057946,OLDCASTLE PRECAST,10441 VINE ST,LAKESIDE,CA,92040,SAN DIEGO,9.0,32.868225,-116.919999,327390
110046341507,BORAL ROOFING LLC,342 ROTH RD,LATHROP,CA,95330,SAN JOAQUIN,9.0,37.85559,-121.274569,327390
110041410498,LIVINGSTON CONCRETE SERVICES (,2260 B ATHENS AVENUE,LINCOLN,CA,95648,PLACER,9.0,38.83896,-121.30925,327390
110071741046,TRAYLOR PRECAST CONCRETE,6205 EAST AVE T,LITTLEROCK,CA,93543,UNITED STATES,9.0,34.54345,-118.01701,327390
110038069247,HANSON PIPE & PRODUCTS,12405 E BRANDT ROAD,LOCKEFORD,CA,95237,SAN JOAQUIN,9.0,38.14686,-121.16514,327390
110025317716,JENSEN PRECAST,12404 LOCKE RD,LOCKEFORD,CA,95237,SAN JOAQUIN,9.0,38.15242,-121.16625,327390
110071387775,JENSEN PRECAST,12101 E BRANDT RD,LOCKEFORD,CA,95237,SAN JOAQUIN,,38.146876,-121.167719,327390
110054307460,DRY CREEK ROCK & READY MIX INC,610 EAST OAK ST,LODI,CA,95240,SAN JOAQUIN,9.0,38.13291,-121.260402,327390
110054262524,CORONADO STONE PRODUCTS,1029 S SACRAMENTO ST,LODI,CA,95240,SAN JOAQUIN,9.0,38.12097,-121.27373,327390
110002924523,OLDCASTLE PRECAST,801 S PINE ST,MADERA,CA,93637,MADERA,9.0,36.94537,-120.07403,327390
110058358316,CENTRAL CONCRETE SUPPLY CO INC,993 WATERBIRD WAY,MARTINEZ,CA,94553,CONTRA COSTA,9.0,38.018108,-122.082326,327390
110000486108,CHRISTY CONCRETE PRODS  INC,5236 ARBOGA RD.,MARYSVILLE,CA,95901,YUBA,9.0,39.18577,-121.5202,327390
110071803515,BUILDERS CONCRETE INC.,3169 N  BEACHWOOD DR,MERCED,CA,95348,MERCED COUNTY,9.0,37.334,-120.527,327390
110058342440,PETERS GUNITE MATERIALS,2705 NATHAN AVE,MODESTO,CA,95355,STANISLAUS,9.0,37.630852,-120.947788,327390
110054259048,CENTRAL CONCRETE SUPPLY CO INC,5002 CABRILLO HWY,MONTARA,CA,94037,SAN MATEO,9.0,37.541929,-122.515739,327390
110071534708,JENSEN PRECAST,801 SAN YSIDRO LN,MONTECITO,CA,93108,SANTA BARBARA,,34.443536,-119.627887,327390
110070556497,OLDCASTLE,1 LIVE OAK AVE,MORGAN HILL,CA,95037,SANTA CLARA COUNTY,9.0,37.16724,-121.68908,327390
110054255462,CONCRETE DESIGNS,"16890 CHURCH ST, BL #10",MORGAN HILL,CA,95037,SANTA CLARA,9.0,37.121382,-121.642451,327390
110054283388,UNKE INC,9200 CLARIBEL RD,OAKDALE,CA,95361,STANISLAUS,9.0,37.711083,-120.825961,327390
110054281610,SIERRA PACIFIC,3213 WOOD STREET,OAKLAND,CA,94608,ALAMEDA,9.0,37.822929,-122.290238,327390
110071691724,BELLINGHAM MARINE INDUSTRIES INC.,"BUILDING 2101841, 12 ST",OCEANSIDE,CA,92058,SAN DIEGO,9.0,,,327390
110039204964,OLDCASTLE PRECAST,5236 ARBOGA RD,OLIVEHURST,CA,95961,YUBA,9.0,39.10576,-121.5608,327390
110030818346,JOHNSON-BATEMAN CO INC A CALIFORNIA CORP,5125 ONTARIO MILLS PKWY,ONTARIO,CA,91764,SAN BERNARDINO,9.0,34.06996,-117.53947,327390
110031001564,SOUTHWEST CONCRETE PRODUCTS ONTARIO PLANT,519 S BENSON AVE,ONTARIO,CA,91762,SAN BERNARDINO,9.0,34.05802,-117.68084,327390
110071845267,JENSEN ENTERPRISES INC DBA JENSEN PRECAST,519 S BENSON ST,ONTARIO,CA,91762,SAN BERNARDINO,,34.05809,-117.680814,327390
110037986221,"RIALTO CONCRETE PRODUCTS, INC.",7186 E. AVE T,PALMDALE,CA,93550,LOS ANGELES,9.0,34.60911,-117.81802,327390
110041510923,"CREATIVE STONE MFG, CORONADO STONE PROD",2770 PERRIS BLVD,PERRIS,CA,92570,RIVERSIDE,9.0,33.82249,-117.22611,327390
110060261808,OLDCASTLE PRECAST,2020 GOETZ RD,PERRIS,CA,92570,RIVERSIDE,9.0,33.76292,-117.22365,327390
110071794181,CORESLAB STRUCTURES (L.A.) INC,150 W PLACENTIA AVE,PERRIS,CA,92571,RIVERSIDE,9.0,33.82359,-117.22884,327390
110001164837,OLDCASTLE PRECAST (PLEASANTON),3786 VALLEY AVE,PLEASANTON,CA,94566,ALAMEDA,9.0,37.67474,-121.86206,327390
110000478331,WR MEADOWS OF SOUTHERN CALIFORNIA,2300 VALLEY BLVD,POMONA,CA,91768,LOS ANGELES,9.0,34.06126,-117.79527,327390
110070385909,CALPORTLAND CEMENT PLANT,15390 WONDERLAND BLVD,REDDING,CA,96003,SHASTA,9.0,40.7369,-122.3223,327390
110021330594,COOK CONCRETE PRODUCTS,5461 EASTSIDE ROAD,REDDING,CA,96001,SHASTA,9.0,40.53607,-122.38409,327390
110071200341,RIALTO CONCRETE PRODUCTS INC,2250 W LOWELL ST,RIALTO,CA,92377,SAN BERNARDINO,9.0,,,327390
110000479410,"BORAL ROOFING, LLC",3511 N RIVERSIDE AVE,RIALTO,CA,92377,SAN BERNARDINO,9.0,34.15935,-117.40462,327390
110000479624,NEW BASIS (FRMLY ASSOCIATED PLASTICS),2626 KANSAS AVE,RIVERSIDE,CA,92507,RIVERSIDE,9.0,33.98802,-117.35721,327390
110071948156,SIKA CORPERATION,2150 EASTRIDGE AVE,RIVERSIDE,CA,92507,RIVERSIDE COUNTY,9.0,33.93137,-117.29463,327390
110001199097,ORCO BLOCK CO INC,4510 RUTILE ST,RIVERSIDE,CA,92509,RIVERSIDE,9.0,34.00683,-117.49719,327390
110070097572,FORTERRA PIPE & PRECAST - RIVERSIDE,26380 PALOMAR ROAD,ROMOLAND,CA,92585,RIVERSIDE COUNTY,9.0,33.738795,-117.160983,327390
110070094445,FORTERRA PIPE & PRECAST LLC,7020 TOKAY AVE,SACRAMENTO,CA,95828,SACRAMENTO COUNTY,9.0,38.4999,-121.39903,327390
110025334136,JENSEN PRECAST,5400 RALEY BLVD,SACRAMENTO,CA,95838,SACRAMENTO,9.0,38.66716,-121.42915,327390
110064122382,SAN BERNARDINO COUNTY SUN,4010 GEORGIA BLVD,SAN BERNARDINO,CA,92407,SAN BERNARDINO,9.0,34.163847,-117.338572,327390
110002773721,MONIERLIFETILE LLC,1990 EAST RIVERVIEW DRIVE,SAN BERNARDINO,CA,92408,SAN BERNARDINO,9.0,34.08096,-117.24476,327390
110064452747,OLDCASTLE PRECAST,2735 CACT US RD,SAN DIEGO,CA,92154,SAN DIEGO,9.0,32.54826,-116.98844,327390
110002926594,STONE YARD,8980 CRESTMAR PT,SAN DIEGO,CA,92121,SAN DIEGO,9.0,32.88701,-117.16945,327390
110071797947,LIBERTY FAMILY PARTNERSHIP,9174 REHCO RD #B,SAN DIEGO,CA,92121,SAN DIEGO,9.0,32.89018,-117.17325,327390
110054208166,D&M CONCRETE PUMPING,14647 WILEY STREET,SAN LEANDRO,CA,94579,ALAMEDA,9.0,37.6979,-122.15757,327390
110001159512,US GYPSUM CO,9306 SORENSEN AVENUE,SANTA FE SPRINGS,CA,90670,LOS ANGELES,9.0,33.95481,-118.06034,327390
110054246669,"SELVAGE CONCRETE PRODUCTS, INC",3309 SEBASTOPOL ROAD,SANTA ROSA,CA,95407,SONOMA,9.0,38.42735,-122.75535,327390
110070088669,HANSON PIPE  PRECAST,30781 SAN DIEGO ST,SHAFTER,CA,93263,KERN COUNTY,9.0,35.46348,-119.2649,327390
110070525862,FOREVERBOARD CALIFORNIA INC,1351 E ASH AVE,SHAFTER,CA,93263,KERN,9.0,35.49522,-119.25444,327390
110070071347,FORTERRA PIPE & PRECAST - SHAFTER,30781 SAN DIEGO ST,SHAFTER,CA,93263,KERN COUNTY,9.0,35.462595,-119.263313,327390
110066718289,CON-FAB CALIFORNIA LLC,701 GOLDS AVE,SHAFTER,CA,93263,KERN,9.0,35.48915,-119.25415,327390
110001178804,PRE-CON PRODUCTS LTD,240 WEST LOS ANGELES AVE.,SIMI VALLEY,CA,93065,VENTURA,9.0,34.28278,-118.8143,327390
110037973413,JAXON ENTERPRISES,VARIOUS LOCATIONS,SJVAPCD,CA,95333,MERCED,9.0,37.3007,-120.4642,327390
110040924621,SAN JOAQUIN GUNITE,"VARIOUS LOCATIONS, SJVUAPCD",SJVAPCD,CA,93706,FRESNO,9.0,36.8992,-119.68167,327390
110058308772,"7/11 MATERIALS, INC.",VARIOUS LOCATIONS,STANISLAUS COUNTY,CA,95215,STANISLAUS,9.0,,,327390
110055858059,ROYAL WHITE CEMENT INC,610 GILMORE AVE,STOCKTON,CA,95203,SAN JOAQUIN,9.0,37.954457,-121.358856,327390
110058355033,CUSTOM BUILDING PRODUCTS,3525 ZEPHYR CT,STOCKTON,CA,95206,SAN JOAQUIN,9.0,37.91628,-121.26367,327390
110037148654,OLDCASTLE INFASTRUCTURE,2960 S HWY 99,STOCKTON,CA,95215,SAN JOAQUIN,9.0,37.930483,-121.232919,327390
110058267432,ARDEX LP,2612 STATION DR,STOCKTON,CA,95215,SAN JOAQUIN,9.0,37.93546,-121.22294,327390
110071732216,CUSTOM BUILDING PRODUCTS - SCKC STOCKTON CA,3525 ZEPHYR CT,STOCKTON,CA,95206,SAN JOAQUIN COUNTY,9.0,37.916261,-121.262613,327390
110054206747,DYNAMIC CEMENT PRODUCTS,1621 NAVY DR,STOCKTON,CA,95206,SAN JOAQUIN,9.0,37.9383,-121.30987,327390
110071806898,EAGLE ROOFING PRODUCTS,4555 S MCKINLEY AVE,STOCKTON,CA,95206,SAN JOAQUIN COUNTY,9.0,37.900907,-121.271468,327390
110071803421,CONCRETE PRODUCTS INC,26901 HANSEN RD.,TRACY,CA,95376,SAN JOAQUIN,9.0,37.70955,-121.51304,327390
110070467789,OLDCASTLE ENCLOSURE SOLUTIONS,10304 LINNE RD,TRACY,CA,95377,SAN JOAQUIN,9.0,37.691661,-121.432973,327390
110070088714,CHRISTY VAULT COMPANY TULARE,9700 AVENUE 256,TULARE,CA,93274,TULARE COUNTY,9.0,36.25463,-119.36814,327390
110054303357,THE ARTESIA COMPANY,210 W PROSPERITY,TULARE,CA,93274,TULARE,9.0,36.22605,-119.3513,327390
110057106867,NORTHGATE READY MIX,5922 PRUITT AVENUE,WINDSOR,CA,95492,SONOMA,9.0,38.523547,-122.79085,327390
110058305089,CLARK PACIFIC,40600 COUNTY ROAD 18C,WOODLAND,CA,95776,YOLO,9.0,38.71319,-121.75319,327390
110038614728,CARDER CONCRETE PLT NO 2,4750 W 60TH AVE,ARVADA,CO,80003,ADAMS,8.0,39.805555,-105.048259,327390
110038615406,MARTIN MARIETTA  - 2401 PICADILLY RD,2401 PICADILLY RD,AURORA,CO,80011,ADAMS,8.0,39.75298,-104.73482,327390
110002008791,AMES CONSTRUCTION INC.CN,20790 E SMITH RD,AURORA,CO,80011,ADAMS,8.0,39.75112,-104.743128,327390
110070567038,WELLS DENVER PRECAST,2145 E. CROWN PRINCE BLVD,BRIGHTON,CO,80603,ADAMS,8.0,40.02949,-104.81151,327390
110021318812,"ACA PRODUCTS, INC.",702 GREGG DR S 17 T14S R78W,BUENA VISTA,CO,81211,CHAFFEE,8.0,38.82514,-106.1416,327390
110038437885,DICK CASEY CONCRETE CO,0242 COUNTY ROAD 104,CARBONDALE,CO,81623,GARFIELD,8.0,39.419297,-107.178601,327390
110038651606,ARCEE,2571 N HIGHWAY 83,CASTLE ROCK AREA,CO,80116,DOUGLAS,8.0,,,327390
110001430924,STRESSCON CORP,3210 ASTROZON BLVD,COLORADO SPRINGS,CO,80910,EL PASO,8.0,38.782396,-104.765761,327390
110038648354,TRANS COLO CONCRETE CO SANTA FE RR DEPOT,FOUNTAIN BLVD N OF,COLORADO SPRINGS,CO,80906,EL PASO,8.0,,,327390
110070551425,"GEARS, INC - PORTABLE MIXING PUGMILL",3425 ASTRONZON BLVD,COLORADO SPRINGS,CO,80910,EAGLE COUNTY,8.0,38.78697,-104.76527,327390
110070713709,SMYRNA READY MIX - PORTABLE READY MIX 2,4416 GRINNELL BLVD,COLORADO SPRINGS,CO,80916,EL PASO,8.0,38.772074,-104.714175,327390
110038525566,"OMEGA PRODUCTS INTERNATIONAL, INC.",6101 DEXTER ST,COMMERCE CITY,CO,80022,ADAMS,8.0,39.80818,-104.93188,327390
110067574066,OLDCASTLE - CRESTED BUTTE RMC PLANT,APPROX 2.7 MILES SE OF CRESTED,CRESTED BUTTE AREA,CO,81224,GUNNISON,8.0,38.841863,-106.950893,327390
110071425408,CASCADE CONST- ALLIANCE READY MIX,19337 F ROAD,DELTA AREA,CO,81416,DELTA,8.0,38.726486,-108.002498,327390
110070813941,US MIX CO.,112 S SANTA FE DR,DENVER,CO,80223,DENVER,8.0,39.714588,-104.998566,327390
110067571844,CONCRETE TO GO-4060 YORK ST,4060 YORK ST.,DENVER,CO,80205,DENVER COUNTY,8.0,39.77399,-104.95943,327390
110022811867,RINKER MATERIALS HYDRO CONDUIT,8600 N WELBY RD,DENVER,CO,80229,ADAMS,8.0,39.85,-104.95,327390
110011372674,ROCLA CONCRETE TIE INCORPORATED,701 WEST 48TH AVENUE,DENVER,CO,80216,DENVER,8.0,39.78409,-104.99385,327390
110001436928,ROCKY MOUNTAIN PRESTRESS LLC (STRUCTURAL PLANT),5801 PECOS STREET,DENVER,CO,80221,ADAMS,8.0,39.80235,-105.00636,327390
110009559263,U.S. MIX PRODUCTS COMPANY,112 SOUTH SANTA FE DRIVE,DENVER,CO,80223,DENVER,8.0,39.714588,-104.998566,327390
110002135779,WELLS CONCRETE - ARCHITECTURAL PLANT,301 W. 60TH PL.,DENVER,CO,80216,ADAMS,8.0,39.80646,-104.98997,327390
110038634181,ERIE PRE-CAST,4060 NE COUNTY LINE RD,ERIE,CO,80516,WELD,8.0,40.059943,-105.055496,327390
110038628651,WESTERN MOBILE NORTHERN   GLENWOOD PLANT,3927 154TH RD,GLENWOOD SPRINGS,CO,81601,GARFIELD,8.0,,,327390
110005980215,GRAND JUNCTION CONCRETE PIPE / READY MIX,2868 I-70 BUSINESS LOOP,GRAND JUNCTION,CO,81501,MESA,8.0,39.073691,-108.521862,327390
110071882423,KILGORE COMPANIES  DBA PEAK READYMIX,2868 I 70 BUSINESS LOOP,GRAND JUNCTION,CO,81501,MESA,8.0,39.072785,-108.522659,327390
110070071329,"FORTERRA PRECAST CONCEPTS, INC",2311 RIVER RD,GRAND JUNCTION,CO,81505,MESA COUNTY,8.0,39.09898,-108.62481,327390
110071722402,OLDCASTLE SW GROUP- PORT CONCRETE PLANT,IL: 200 INDUSTRIAL PARK RD,GUNNISON,CO,81230,,,38.53861,-106.85705,327390
110000467584,DENVER ARCHITECHURAL PRECAST INC,8200 E. 96TH AVE.,HENDERSON,CO,80640,ADAMS,8.0,39.87076,-104.892069,327390
110015679130,MONIERLIFETILE L.L.C.,10121 DALLAS ST.,HENDERSON,CO,80640,ADAMS,8.0,39.88016,-104.87615,327390
110001727169,"PAVESTONE, LLC",9401 E 96TH AVE,HENDERSON,CO,80640,ADAMS,8.0,39.87075,-104.87614,327390
110070071330,"FORTERRA PRECAST CONCEPTS, INC.",9405 ALTON CT,HENDERSON,CO,80640,ADAMS COUNTY,8.0,39.8676,-104.88165,327390
110070740275,BURNCO COLORADO - EAST GREELEY PLANT,SESE SEC12 T6N R65W,KERSEY,CO,80631,WELD,8.0,,,327390
110043216971,VALCRETE - LIMON PLANT,103 A AVE,LIMON,CO,80828,LINCOLN,8.0,39.261666,-103.682619,327390
110038628296,ACME MATERIALS & CONSTRUCTION (REX CBP),"HOMEBASE: SPOKANE, WA",LINCOLN COUNTY,CO,00000,PORTABLE SOURCE,8.0,,,327390
110059285839,"E & C PRECAST CONCRETE, INC.",9608 MOORE RD,LITTLETON,CO,80125,DOUGLAS,8.0,39.50125,-105.02672,327390
110041098718,OLDCASTLE PRECAST  INC,8392 W RIVERVIEW PKWY,LITTLETON,CO,80125,DOUGLAS,8.0,39.56077,-105.04582,327390
110001132603,WESTILE INC,8382 W. RIVERVIEW PKY.,LITTLETON,CO,80125,DOUGLAS,8.0,39.56048,-105.0453,327390
110046332875,OLDCASTLE PRECAST,1820 SE 14 ST,LOVELAND,CO,80537,LARIMER,8.0,40.378342,-105.050465,327390
110070507335,OLDCASTLE INFRASTRUCTURE - PLATTEVILLE,"1820 14TH STREET, SE",LOVELAND AREA,CO,80537,LARIMER,8.0,40.378342,-105.050465,327390
110067570989,FRONT RANGE REDDI MIX - 651 S CR 9E,651 S CR 9E,LOVELAND AREA,CO,80537,LARIMER,8.0,40.386227,-105.031538,327390
110071723036,ZAK DIRT - PORTABLE BATCH PLANT,14290 HILLTOP RD,MEAD,CO,80504,,,40.207723,-104.971697,327390
110028718804,UNITED READY MIX - PLATTEVILLE,150 FRONT ST,PLATTEVILLE,CO,80651,WELD,8.0,40.218477,-104.819509,327390
110039495524,OLDCASTLE INFRASTRUCTURE,427 N FRONT ST,PLATTEVILLE,CO,80651,WELD,8.0,40.22545,-104.81894,327390
110018912211,ELDORADO STONE (PREV. STONECRAFT),33645 UNITED AVENUE,PUEBLO,CO,81001,PUEBLO,8.0,38.276465,-104.497628,327390
110061079942,ASI CONSTRUCTION - CONCRE BATCH PLANT #6,DURANGO MOUNTAIN RESORT,RICO 12.3 MI. E OF,CO,81301,PORTABLE SOURCE,8.0,,,327390
110071092133,HAMMERSON CORP - PORTABLE COMCRETE BATCH,902 COUTY ROAD 16,SEIBERT,CO,80834,KIT CARSON COUNTY,8.0,,,327390
110038615479,ROCKY MT PRESTRESSED,3890 S FEDERAL BLVD,SHERIDAN,CO,80110,ARAPAHOE,8.0,39.64591,-105.02532,327390
110070704010,MILLSTONE WEBER - PORT BATCH PLANT #7001,601 FOUNTAIN LAKES BLVD.,ST. CHARLES,CO,63301,ST. CHARLES COUNTY,8.0,38.82744,-90.52529,327390
110033134203,KILLION SUPPLY - PORTABLE EAGLE CRUSHER,HB: 730 JASON RD,WELLINGTON 2.3 MI. W OF,CO,80524,PORTABLE SOURCE,8.0,,,327390
110063941454,ACA PRODUCTS INC.,,,CO,,MULTIPLE (PORTABLE FACILITIES),8.0,,,327390
110070062037,ASI CONSTRUCTION - CONCRE BATCH PLANT #6,,,CO,,MULTIPLE (PORTABLE FACILITIES),8.0,,,327390
110071201126,SMYRNA READY MIX - PORTABLE READY MIX 2,,,CO,,MULTIPLE (PORTABLE FACILITIES),8.0,,,327390
110063942603,ZAK DIRT - PORTABLE BATCH PLANT,,,CO,,MULTIPLE (PORTABLE FACILITIES),8.0,,,327390
110071201097,"GEARS, INC - PORTABLE MIXING PUGMILL",,,CO,,MULTIPLE (PORTABLE FACILITIES),8.0,,,327390
110063962261,KILLION SUPPLY - PORTABLE EAGLE CRUSHER,,,CO,,MULTIPLE (PORTABLE FACILITIES),8.0,,,327390
110001407905,OLDCASTLE PRECAST,151 OLD FARMS RD,AVON,CT,06001,HARTFORD,1.0,41.80039,-72.83414,327390
110005969746,BLAKESLEE PRESTRESS INC,RT 139/MCDERMOTT ROAD,BRANFORD,CT,06405,NEW HAVEN,1.0,41.302774,-72.775272,327390
110033182678,"BLACK ROCK COLUMN, INC.",146 DAVIS AVENUE,BRIDGEPORT,CT,06605,FAIRFIELD,1.0,41.16385,-73.22587,327390
110012143625,OLDCASTLE RETAIL INC (DBA BONSAL AMERICAN),43 CLAYTON RD,CANAAN,CT,06018,LITCHFIELD,1.0,42.046389,-73.319367,327390
110001748486,"KOBYLUCK READY-MIX, INC",170 OXOBOXO DAM RD,OAKDALE,CT,06370,NEW LONDON,1.0,41.47902,-72.17901,327390
110037143472,KENNETH LYNCH & SONS,114 WILLENBROCK ROAD,OXFORD,CT,06478,NEW HAVEN,1.0,41.46484,-73.15269,327390
110001405916,WASHINGTON CONCRETE PRODUCTS,328 S WASHINGTON,PLAINVILLE,CT,06062,HARTFORD,1.0,41.65321,-72.87489,327390
110001409039,"CORESLAB STRUCTURES (CONN), INC",1023 WATERBURY RD,THOMASTON,CT,06787,LITCHFIELD,1.0,41.63679,-73.07731,327390
110001407264,"MANAFORT BROTHERS, INC",199 MUNICIPAL RD (WWTP),WATERBURY,CT,06702,NEW HAVEN,1.0,41.52065,-73.04561,327390
110012708383,KENNETH LYNCH & SONS INC,84 DANBURY RD.,WILTON,CT,06897,FAIRFIELD,1.0,41.17166,-73.41646,327390
110015784560,BUILDERS CONCRETE EAST,79 BOSTON POST RD,WINDHAM,CT,06256,WINDHAM,1.0,41.72431,-72.19185,327390
110054122203,RECYCLED AGGREGATES - DC ROCK PLANT,1721 S CAPITOL ST SW,WASHINGTON,DC,20003,DISTRICT OF COLUMBIA,3.0,38.86853,-77.00906,327390
110035692550,SOUTHERN PRECAST - 100% RECYCLE SYSTEM,13365 SOUTHERN PRECAST DR,ALACHUA,FL,32615,ALACHUA,4.0,29.77928,-82.44375,327390
110009072662,HYDRO CONDUIT LLC DBA RINKER MATERIALS,2313 VULCAN RD,APOPKA,FL,32703,ORANGE,4.0,28.63819,-81.46788,327390
110009068668,FINFROCK INDUSTRIES INC,2400 APOPKA BLVD,APOPKA,FL,32703,ORANGE,4.0,28.64126,-81.462312,327390
110060366303,FINFROCK INDUSTRIES INC,2400 APOPKA BLVD,APOPKA,FL,32703,ORANGE,4.0,28.64126,-81.462312,327390
110039604737,FLORIDA ROAD BASE MATERIALS,3601 PLANCK RD,APOPKA,FL,32712,ORANGE,4.0,28.7345,-81.58477,327390
110006176379,ACCO,3351 WEST ORANGE BLOSSOM TRAIL,APOPKA,FL,32712,ORANGE,4.0,28.69718,-81.564729,327390
110031370727,STONECRAFTERS ARCHITECTURAL PRECAST STON,6154 SW HIGHWAY 72,ARCADIA,FL,34266,DE SOTO,4.0,27.201828,-81.943547,327390
110039632154,TREMRON GROUP,3144 HWY 17 NE,ARCADIA,FL,34266,DE SOTO,4.0,27.178035,-81.873176,327390
110006158567,MACK CONCRETE INDUSTRIES,23902 CR 561 S,ASTATULA,FL,34705,LAKE,4.0,28.694403,-81.730553,327390
110039629756,COUNTY MATERIALS CORP,25750 CR 561,ASTATULA,FL,34705,LAKE,4.0,28.72177,-81.73166,327390
110039019665,AMERIMIX A DIV OF BONSAL AMERICAN,1511 1ST ST W,AUBURNDALE,FL,33823,POLK,4.0,28.05764,-81.80703,327390
110041266206,AUBURNDALE  DRYMIX PLANT,1511 1ST ST W,AUBURNDALE,FL,33823,POLK,4.0,28.05764,-81.80703,327390
110039607681,"LONE STAR INDUSTRIES, INC.",6266 DALISA ROAD,BAGDAD,FL,99999,SANTA ROSA,4.0,,,327390
110039629970,OLDCASTLE PRECAST INC,3390 HWY 17 N,BARTOW,FL,33830,POLK,4.0,27.939136,-81.803084,327390
110039630511,METROMONT CORPORATION,4151 US HWY 17 S,BARTOW,FL,33830,POLK,4.0,27.841124,-81.824235,327390
110070917415,FINFROCK INDUSTRIES SOUTH FLORIDA (AKA PROJECT JACOBSON),500 ORANGE AVENUE CIRCLE,BELLE GLADE,FL,33430,PALM BEACH,4.0,26.715239,-80.673531,327390
110071719202,MONIERLIFETILE L L C,135 N.W. 20 ST.,BOCA RATON,FL,33431,PALM BEACH,4.0,26.37,-80.08667,327390
110039619366,FLORIDA STUCCO CORPORATION,21195 BOCA RIO RD,BOCA RATON,FL,33433,PALM BEACH,4.0,26.36229,-80.17142,327390
110012706330,MONIERLIFETILE LLC,135 N.W 20 ST.,BOCA RATON,FL,33431,PALM BEACH,4.0,26.36788,-80.08631,327390
110012325420,"S & S PRECAST, INC.",25095 OLD 41 RD,BONITA SPRINGS,FL,34135,LEE,4.0,26.375278,-81.801389,327390
110008317525,S & S STRUCTURAL SYSTEMS,25249 OLD US 41,BONITA SPRINGS,FL,34135,LEE,4.0,26.375403,-81.801133,327390
110016620156,"WOODRUFF & SONS, INC.",6450 31ST STREET EAST,BRADENTON,FL,34203,PORTABLE SOURCE,4.0,27.42908,-82.52493,327390
110039632314,DAVIS CONCRETE INC,3331 81ST CT E,BRADENTON,FL,34211,MANATEE,4.0,27.46938,-82.45728,327390
110039616243,WOODRUFF & SONS INC,6540 - 31ST STREET EAST,BRADENTON,FL,34282,PORTABLE SOURCE,4.0,27.46557,-82.52385,327390
110064255853,HAYWARD BAKER INC,17915 WATERLINE RD,BRADENTON,FL,34212,MANATEE,4.0,27.48784,-82.35801,327390
110027971915,PRESTIGE AB MANAGEMENT CO LLC,2202 NORTH STATE STREET,BUNNELL,FL,32110,FLAGLER,4.0,29.48302,-81.26751,327390
110039614717,BAUER FOUNDATION CORPORATION,18805 S US HWY 441,CANAL POINT,FL,33438,PORTABLE SOURCE,4.0,26.95629,-80.60963,327390
110039611391,SOUTHEASTERN PIPE & PRECAST INC,2900 N HWY 95A,CANTONMENT,FL,32533,ESCAMBIA,4.0,30.64625,-87.317752,327390
110039613451,ARNOLD BROTHERS INC,2437 SW PINE ISLAND RD,CAPE CORAL,FL,33991,PORTABLE SOURCE,4.0,26.637453,-82.025714,327390
110039607994,S & L MINE BORROW PIT PHASE 2 & 3,28001 SR 520,CHRISTMAS,FL,32709,ORANGE,4.0,28.39418,-80.94341,327390
110013231074,"CLEARWATER, CITY OF - MASTER REUSE SYSTEM","1650 N. ARCUTURAS AVE., BLDG. #C",CLEARWATER,FL,33765,PINELLAS,4.0,27.982374,-82.759474,327390
110013346209,GULFCOAST WILBERT INC,100 MARTIN STREET,CRESTVIEW,FL,32536,OKALOOSA,4.0,30.76348,-86.58886,327390
110024519047,SURECRETE LLC,15246 CITRUS COUNTRY DRIVE,DADE CITY,FL,33523,PASCO,4.0,28.380339,-82.19117,327390
110063603989,"WILBERT FUNERAL SERVICES, INC.",2257 SW 66TH TER,DAVIE,FL,33317,BROWARD,4.0,26.09411,-80.23516,327390
110072073545,"P&S PAVING, INC.",2337 BELLEVUE AVE,DAYTONA BEACH,FL,32114,VOLUSIA,4.0,29.17576,-81.06073,327390
110060260998,VCNA PRESTIGE CONCRETE-DAYTONA,1189 INDIAN LAKE RD,DAYTONA BEACH,FL,32124,VOLUSIA,4.0,29.15005,-81.14788,327390
110005650759,PROGRESSIVE CONTRACTORS INC,3702 OLSON DR,DAYTONA BEACH,FL,32124,VOLUSIA,4.0,29.147896,-81.141204,327390
110005642279,TAYLOR PRECAST INC,840 W AVE,DE LAND,FL,32721,VOLUSIA,4.0,29.013856,-81.349768,327390
110032775307,SEMINOLE PRECAST MANUFACTURING INC,331 BENSON JUNCTION RD,DEBARY,FL,32713,VOLUSIA,4.0,28.8658,-81.32962,327390
110035580298,"PIONEER CONCRETE TILE, INC",1340 SW 34TH AVE,DEERFIELD BEACH,FL,33442,BROWARD,4.0,26.30046,-80.14966,327390
110070001943,ENTEGRA - DEERFIELD BEACH,1340 SW 34TH AVE,DEERFIELD BEACH,FL,33442,BROWARD,4.0,26.30046,-80.14966,327390
110070147009,COASTAL AN OLDCASTLE CO DEFUNIAK SPRINGS PAVER,28 GENE HURLEY RD,DEFUNIAK SPRINGS,FL,32435,WALTON,4.0,30.734983,-86.158015,327390
110070147011,COASTAL AN OLDCASTLE CO DEFUNIAK SPRINGS BLOCK,91 GENE HURLEY RD,DEFUNIAK SPRINGS,FL,32435,WALTON,4.0,30.73385,-86.15788,327390
110070335467,FORTERRA PIPE & PRECAST LLC,840 WEST AVE,DELAND,FL,32720,VOLUSIA,4.0,29.01399,-81.34868,327390
110037315394,CONCRETE IMPRESSIONS OF FLORIDA,600 FAIR ST,DELAND,FL,32720,VOLUSIA,4.0,29.0157,-81.35691,327390
110057774975,"PROFILES IN CONCRETE, INC.",1127 POINSETTIA DR.,DELRAY BEACH,FL,33444,PALM BEACH,4.0,26.44421,-80.08536,327390
110002102938,FISHER MARBLE CORP,150 AZALEA DR.,DESTIN,FL,32541,OKALOOSA,4.0,30.39755,-86.50487,327390
110039608163,CONCRETE STRUCTURES INC,12100 NW 58TH ST,FLORIDA,FL,33178,DADE,4.0,25.82604,-80.39195,327390
110071962785,GEOQUEST PRECAST PLANT - LABELLE,3655 FL-80,FORT DENAUD,FL,33935,HENDRY,4.0,,,327390
110054830457,HENKAY PRECAST INC,3645 W STATE ROAD 80,FORT DENAUD,FL,33935,HENDRY,4.0,,,327390
110039606566,U S CONCRETE PIPE CO,2200 W SUNRISE BLVD,FORT LAUDERDALE,FL,33311,BROWARD,4.0,26.13605,-80.17128,327390
110070832463,VALMONT NEWMARK SMALL POLE FACILITY,1381 US HWY 17 NORTH,FORT MEADE,FL,33841,POLK,4.0,27.768967,-81.801523,327390
110058918220,"WILBERT FUNERAL SERVICES, INC.",2411 CRYSTAL DR,FORT MYERS,FL,33907,LEE,4.0,26.56452,-81.85893,327390
110022522812,FORTERRA ROOF TILE INC,2451 CRYSTAL DR,FORT MYERS,FL,33907,LEE,4.0,26.56454,-81.85636,327390
110039630389,PRESTIGE GUNITE,16401 OLD US 41,FORT MYERS,FL,33912,LEE,4.0,26.50269,-81.85211,327390
110013681159,VSI MOBILMIX,3640 WORK DR.,FORT MYERS,FL,33916,LEE,4.0,26.6163,-81.84365,327390
110005647675,CEMEX/RINKER MATERIALS,2040 ORTIZ AVE,FORT MYERS,FL,33905,LEE,4.0,26.641426,-81.812993,327390
110071729618,FPC - FORT MYERS PRECAST,7291 PENNSYLVANIA ST,FORT MYERS,FL,33912,LEE,4.0,26.495101,-81.830729,327390
110025310571,"KUHLMAN CONCRETE, LLC",2690 ROCKFILL RD,FORT MYERS,FL,33916,LEE,4.0,26.62941,-81.82978,327390
110009072760,"FLORIDA WILBERT, INC.",2411 CRYSTAL DR,FORT MYERS,FL,33907,LEE,4.0,26.56452,-81.85893,327390
110005586794,CEMENT INDUSTRIES INC,2709 JEFFCOTT ST,FORT MYERS,FL,33901,LEE,4.0,26.62909,-81.85757,327390
110039600205,COASTAL PRECAST OF FLORIDA INC,7291 PENNSYLVANIA ST,FORT MYERS,FL,33912,PORTABLE SOURCE,4.0,26.494592,-81.831982,327390
110071528371,"QUALITY PRECAST SOLUTIONS, LLC",7958 USA INDUSTRIAL DRIVE,FORT MYERS,FL,33912,LEE,4.0,26.502154,-81.824334,327390
110070265863,AMERICAN CONCRETE INDUSTRIES,350 N ROCK RD,FORT PIERCE,FL,34945,ST. LUCIE,4.0,27.4517,-80.40764,327390
110072075508,ALCRETE LLC,350 N ROCK RD,FORT PIERCE,FL,34945,ST. LUCIE,4.0,27.4517,-80.40764,327390
110070265995,AMERICAN CONCRETE INDUSTRIES INC,350 N ROCK RD,FORT PIERCE,FL,34945,ST. LUCIE,4.0,27.4517,-80.40764,327390
110071505653,MEYER UTILITY STRUCTURES LLC,4359 FAVORITE RD,FORT PIERCE,FL,34981,ST LUCIE,4.0,27.377871,-80.368883,327390
110020517831,COASTAL AN OLDCASTLE CO,4600 MAGNUM DR,FORT PIERCE,FL,34981,ST. LUCIE,4.0,27.37997,-80.3808,327390
110022455332,TITAN FLORIDA LLC,4199 SELVITZ RD,FORT PIERCE,FL,34981,ST. LUCIE,4.0,27.38908,-80.36651,327390
110024573558,DICKERSON ASPHALT PLANT#14,3760 SELVITZ RD,FORT PIERCE,FL,34981,ST LUCIE,4.0,27.396511,-80.36624,327390
110054829147,CLASSIC CAST,18235 US HIGHWAY 331 S,FREEPORT,FL,32439,WALTON,4.0,30.46182,-86.13093,327390
110010115650,GULF COAST PRECAST INC,2506 PRECAST COURT,FT MYERS,FL,33916,LEE,4.0,26.6305,-81.8321,327390
110002540992,"CROM, LLC",6801 SW ARCHER RD,GAINESVILLE,FL,32608,ALACHUA,4.0,29.600878,-82.412035,327390
110020517332,"HANSON PIPE & PRECAST, LLC.",12781 US HIGHWAY 41 SOUTH,GIBSONTON,FL,33534,HILLSBOROUGH,4.0,27.8077,-82.3843,327390
110025331870,OLDCASTLE COASTAL INC,4460 OLD DIXIE HWY,GRANT,FL,32949,BREVARD,4.0,27.944,-80.5346,327390
110022411184,HANSON PIPE & PRECAST - GREEN COVE SPRINGS,4190 US HWY 17 S,GREEN COVE SPRINGS,FL,32043,CLAY,4.0,29.971469,-81.677092,327390
110009075945,NEW NGC INCD/B/A NATIONAL GYPSUM CO,1767 WILDWOOD RD,GREEN COVE SPRINGS,FL,32043,CLAY,4.0,29.981806,-81.662498,327390
110071719465,"FORTERRA PIPE & PRECAST, LLC",4190 HIGHWAY 17 S,GREEN COVE SPRINGS,FL,32043,CLAY,4.0,29.971151,-81.677758,327390
110035569097,CDS FDOT CASTING YARD GRETNA,106 CHARLES HAYES SR DRIVE,GRETNA,FL,32332,GADSDEN,4.0,30.59505,-84.65415,327390
110064262248,"PAREX USA, INC.",2501 HWY 544,HAINES CITY,FL,33844,POLK,4.0,28.08226,-81.604502,327390
110025331772,HANSON PAVER PRODUCTS HAINES CITY PLANT,1980 MARLEY DR,HAINES CITY,FL,33844,POLK,4.0,28.084627,-81.610869,327390
110006158362,"AERCON FLORIDA, LLC",3701 CR 544 E,HAINES CITY,FL,33844,POLK,4.0,28.082657,-81.603169,327390
110035628782,FLORIDA SEPTIC TRUCK WASH,5757 SE 211TH ST,HAWTHORNE,FL,32640,ALACHUA,4.0,29.597055,-82.090972,327390
110002103982,HANSON ROOF TILE - HOBE SOUND,13000 FLORA AVE.,HOBE SOUND,FL,33455,MARTIN,4.0,27.046656,-80.147935,327390
110045948098,STRONG INC,466 RIDGEWOOD AVE,HOLLY HILL,FL,32117,VOLUSIA,4.0,29.23374,-81.03518,327390
110071239965,LAND CLEARING KEYSTONE INVESTMENTS III,1200 WIGMORE ST,JACKSONVILLE,FL,32206,DUVAL,4.0,30.364922,-81.641456,327390
110071865071,GREENLAND BIOMASS SITE,11651 DAVIS CREEK RD E,JACKSONVILLE,FL,32256,DUVAL,4.0,30.158418,-81.520785,327390
110005622718,FLORIDA WILBERT INC,5050 NEW KINGS RD,JACKSONVILLE,FL,32209,DUVAL,4.0,30.36126,-81.71502,327390
110039634465,"TARMAC AMERICA, INC.",6557 GREENLAND RD,JACKSONVILLE,FL,32258,DUVAL,4.0,30.16427,-81.54026,327390
110071726858,"ELEV8 RECYCLING, LLC",5154 EDWARD ST,JACKSONVILLE,FL,32254,DUVAL,4.0,30.353521,-81.736539,327390
110037473659,GATE PRECAST COMPANY,402 ZOO PKWY,JACKSONVILLE,FL,32226,DUVAL,4.0,30.40706,-81.64041,327390
110043162868,INDEPENDENCE RECYCLING JACKSONVILLE,1200 WIGMORE ST,JACKSONVILLE,FL,32206,DUVAL,4.0,30.3687,-81.63871,327390
110009079031,"OLDCASTLE RETAIL, INC.",6659 HIGHWAY AVENUE,JACKSONVILLE,FL,32254,DUVAL,4.0,30.32011,-81.75646,327390
110039602999,TREMRON LLC,2885 SAINT CLAIR ST,JACKSONVILLE,FL,32254,DUVAL,4.0,30.355667,-81.716263,327390
110009077550,JACKSONSONVILLE SOUTH MFG,14770 OLD SAINT AUGUSTINE RD,JACKSONVILLE,FL,32258,DUVAL,4.0,30.14052,-81.52528,327390
110012540820,AA PRECAST PRODUCTS INC,8300 W BEAVER ST,JACKSONVILLE,FL,32220,DUVAL,4.0,30.321148,-81.789491,327390
110039603024,STANDARD PRECAST INC,12300 PRESIDENTS CT,JACKSONVILLE,FL,32220,DUVAL,4.0,30.36925,-81.842564,327390
110070813300,"OLDCASTLE PRECAST, INC. - JACKSONVILLESP",12300 PRESIDENTS CT,JACKSONVILLE,FL,32220,DUVAL COUNTY,4.0,30.36925,-81.842564,327390
110020068978,"STANDARD PRECAST, INC.",3720 CISCO DRIVE WEST,JACKSONVILLE,FL,32219,DUVAL,4.0,30.371722,-81.8505,327390
110009691244,OLDCASTLE PRECAST INC.,5995 SOUTEL DR,JACKSONVILLE,FL,32219,DUVAL,4.0,30.38022,-81.74084,327390
110009068418,"GATE PRECAST COMPANY-JACKSONVILLE, FL",402 HECKSCHER DR,JACKSONVILLE,FL,32226,DUVAL,4.0,30.398056,-81.641389,327390
110039634492,"TARMAC AMERICA, LLC",7330 PHILLIPS HWY,JACKSONVILLE,FL,32256,DUVAL,4.0,30.23952,-81.59652,327390
110071927892,"LAN SE, LLC DBA GATE PRECAST-JACKSONVILLE, FL",402 ZOO PKWY,JACKSONVILLE,FL,32226,DUVAL,4.0,30.40706,-81.64041,327390
110062701777,HOLNAM INC.,337 PINEDALE TERR,JACKSONVILLE,FL,32254,DUVAL,4.0,30.323425,-81.722398,327390
110039602873,O E SMITH'S SONS INC,11749 US HWY 1 N,JACKSONVILLE,FL,32219,DUVAL,4.0,,,327390
110009074483,QUIKRETE-JACKSONVILLE,11640 CAMDEN RD,JACKSONVILLE,FL,32218,DUVAL,4.0,30.44626,-81.62019,327390
110012325377,GATE PRECAST CONCRETE,1018 SAWDUST TRAIL,KISSIMMEE,FL,34744,OSCEOLA,4.0,28.33143,-81.396139,327390
110071910423,"LAN SE, LLC DBA GATE PRECAST-KISSIMMEE, FL",810 SAWDUST TRAIL,KISSIMMEE,FL,34744,OSCEOLA,4.0,28.33217,-81.39624,327390
110039615048,LABELLE BRICK PAVERS LLC,1515 FORESTRY DIVISION RD,LABELLE,FL,33935,HENDRY,4.0,26.74135,-81.42596,327390
110000365088,BORAL ROOFING LLC,200 STORY ROAD,LAKE WALES,FL,33898,POLK,4.0,27.897864,-81.504744,327390
110007243321,STANDARD SAND & SILICA COMPANY,524 STORY RD,LAKE WALES,FL,33898,POLK,4.0,27.90163,-81.50621,327390
110039629541,TREMRON LAKELAND LLC,1030 AIRPORT RD,LAKELAND,FL,33811,POLK,4.0,28.02987,-82.01854,327390
110006176271,"THE QUIKRETE COMPANIES, LLC.",4230 MAINE AVE,LAKELAND,FL,33801,POLK,4.0,28.01144,-81.87783,327390
110009069284,TRENWA INC,1920 LONGHORN AVE,LAKELAND,FL,33801,POLK,4.0,28.02058,-81.87472,327390
110071252295,"PAW MATERIALS, INC",18419 STATE ROAD 52,LAND O LAKES,FL,34638,PASCO,4.0,28.3255,-82.51102,327390
110013682853,CEMEX LLC - LARGO WEST PLANT,2195 LAKE AVENUE SE,LARGO,FL,33771,PINELLAS,4.0,27.897104,-82.76922,327390
110039600394,LAURELWOOD FLORIDA BUILDERS INC,8989 ULMERTON RD,LARGO,FL,33771,PORTABLE SOURCE,4.0,27.89457,-82.76447,327390
110037317873,JE HILL PRECAST,2500 GRIFFIN RD,LEESBURG,FL,34748,LAKE,4.0,28.82971,-81.906884,327390
110070279228,"DURA-STRESS, INC.",11325 CR 44,LEESBURG,FL,34788,LAKE,4.0,28.873719,-81.771413,327390
110007435980,DURA-STRESS CONCRETE PRODUCTS,11325 COUNTY ROAD 44,LEESBURG,FL,34788,LAKE,4.0,28.875613,-81.768242,327390
110005630727,LEESBURG CONCRETE INC,2008 GRIFFIN RD,LEESBURG,FL,34748,LAKE,4.0,28.829865,-81.894421,327390
110039629845,DURASTRESS UNDERGROUND INC,11043 CR 44,LEESBURG,FL,34788,LAKE,4.0,28.873426,-81.774708,327390
110070710446,DIVERSITECH,1632 3RD ST,LEESBURG,FL,34748,LAKE,4.0,28.81738,-81.84834,327390
110039600349,GEARS INC. ï¿½LTRSDï¿½,12707 CR 39 SOUTH,LITHIA,FL,33547,PORTABLE SOURCE,4.0,27.812177,-82.14568,327390
110039602891,SEMINOLE SHOTCRETE INC,1700 TIMOCUAN WAY,LONGWOOD,FL,32750,PORTABLE SOURCE,4.0,28.71916,-81.33501,327390
110064339924,FLORIDA SOIL CEMENT LLC,SUNLAKE BLVD.,LUTZ,FL,33558,HILLS,4.0,,,327390
110028294496,"HANSON PIPE & PRECAST, LLC.",4043 FAMILY DOLLAR PKWY,MARIANNA,FL,32448,JACKSON,4.0,30.74657,-85.25985,327390
110055101214,FORTERRA PIPE & PRECAST - MARIANNA,4043 FAMILY DOLLAR PKWY,MARIANNA,FL,32448,JACKSON,4.0,30.74657,-85.25985,327390
110069275661,FORTERRA PIPE & PRECAST - MARIANNA,4043 FAMILY DOLLAR PKWY,MARIANNA,FL,32448,JACKSON COUNTY,4.0,30.74657,-85.25985,327390
110039615985,PERRY PRECAST INC,324 SE INDUSTRIAL PARK CIR,MAYO,FL,32066,PORTABLE SOURCE,4.0,30.051702,-83.16438,327390
110002395186,"NUSFC, LLC",8351 NW 93RD ST,MEDLEY,FL,33166,MIAMI-DADE,4.0,25.85797,-80.33373,327390
110039604639,"TREMRON MIAMI, INC.",11321 NW 138TH ST,MEDLEY,FL,33178,PORTABLE SOURCE,4.0,,,327390
110027973156,OLDCASTLE PRECAST INC,7311 NW 77TH ST,MEDLEY,FL,33166,MIAMI-DADE,4.0,25.84345,-80.31687,327390
110030817016,CUSTOM BUILDING PRODUCTS,8850 NW 79TH AVE,MEDLEY,FL,33166,MIAMI-DADE,4.0,25.85335,-80.32594,327390
110071202677,THE QUIKRETE COMPANIES LLC,12201 NW 25TH ST,MIAMI,FL,33182,MIAMI-DADE,4.0,25.79683,-80.39362,327390
110071433348,"THE QUIKRETE COMPANIES, LLC",13390 NW 113TH AVENUE RD.,MIAMI,FL,33178,MIAMI-DADE,4.0,25.89402,-80.38112,327390
110070885476,OLDCASTLE INFRASTRUCTURE,630 BUSINESS PARK RD,MIDWAY,FL,32343,GADSDEN,4.0,30.481106,-84.426952,327390
110070813301,"OLDCASTLE PRECAST, INC. - TALLAHASSEESP",780 BUSINESS PARK RD,MIDWAY,FL,32343,GADSDEN COUNTY,4.0,30.483562,-84.426544,327390
110001410820,THE QUIKRETE COMPANIES LLC,7101 WINDWOOD LANE,MILTON,FL,32583,SANTA ROSA,4.0,30.57969,-87.02731,327390
110071223899,TRUE ENTERPRISE LLC,2250 SW 208TH AVE,MIRAMAR,FL,33029,BROWARD,4.0,25.992767,-80.424284,327390
110071205280,"ALL FLORIDA BRICK, CORP.",2250 SW 208TH AVE,MIRAMAR,FL,33029,BROWARD,4.0,25.992767,-80.424284,327390
110063603970,"WILBERT FUNERAL SERVICES, INC.",2005 INDUSTRIAL PARK RD,MULBERRY,FL,33860,POLK,4.0,27.90008,-81.99278,327390
110057796942,D. C. KERCKHOFF CO.,1901 ELSA STREET,NAPLES,FL,34109,COLLIER,4.0,26.219962,-81.780253,327390
110039597068,GULFSIDE CONSTRUCTION & EQUIPMENT INC,4303 EXCHANGE AVE,NAPLES,FL,34104,COLLIER,4.0,26.15882,-81.7556,327390
110039604960,C & M ROAD BUILDERS INC,PADOVA WAY,NOKOMIS,FL,34202,PORTABLE SOURCE,4.0,,,327390
110009070762,OLDCASTLE PRECAST INC,2140 PONDELLA RD,NORTH FORT MYERS,FL,33903,LEE,4.0,26.6675,-81.92904,327390
110005622157,OCALA LUMBER SALES COMPANY,1700 NW 8TH AVE,OCALA,FL,34475,MARION,4.0,29.206137,-82.145654,327390
110039607262,PRESTIGE GUNITE FLORIDA LLC,1214 NW 38TH AVE,OCALA,FL,34482,PORTABLE SOURCE,4.0,29.19919,-82.1852,327390
110012623740,INCRETE SYS  INC,1725 GUNN HWY.,ODESSA,FL,33556,PASCO,4.0,28.18356,-82.59203,327390
110033631728,FLORIDA WILBERT LEESBURG PLANT,27439 HAYWOOD WORM FARM RD,OKAHUMPKA,FL,34762,LAKE,4.0,28.74669,-81.88796,327390
110031337505,ENTEGRA ROOF TILE CORP,1289 NE 9TH AVE,OKEECHOBEE,FL,34972,OKEECHOBEE,4.0,27.251111,-80.851111,327390
110006779370,PRECAST DESIGNS INC,10305 ROCKET COURT,ORLANDO,FL,32824,ORANGE,4.0,28.41641,-81.38407,327390
110020060976,OLDCASTLE PRECAST INC,690 W. TAFT - VINELAND RD.,ORLANDO,FL,32824,ORANGE,4.0,28.42151,-81.38612,327390
110039604666,OLDCASTLE COASTAL CONCRETE PRODUCTS,39 W LANDSTREET,ORLANDO,FL,32824,ORANGE,4.0,28.436177,-81.376376,327390
110001739511,ALLIED PRECAST PRODUCTS COMPANY INC,5640 CARDER ROAD,ORLANDO,FL,32810,ORANGE,4.0,28.61057,-81.41899,327390
110039613754,FLORIDA SOIL CEMENT LLC,8810 VALENCIA COLLEGE LN,ORLANDO,FL,32825,PORTABLE SOURCE,4.0,28.5538,-81.26354,327390
110070001626,PECE OF MIND ENVIRONMENTAL - CONCRETE CRUSHER YARD,2300 MERCATOR DR,ORLANDO,FL,32807,ORANGE,4.0,28.57692,-81.299307,327390
110000361741,"HUBBELL LENOIR CITY, INC",2 KAY LARKIN CIR,PALATKA,FL,32177,PUTNAM COUNTY,4.0,29.655458,-81.691359,327390
110006778638,"TPG PRESSURE, INC.",245 COMFORT ROAD,PALATKA,FL,32177,PUTNAM,4.0,29.69025,-81.65818,327390
110025331816,HANSON PIPE & PRODUCTS PRECAST PANAMA CITY,1900 E 15TH ST,PANAMA CITY,FL,32405,BAY COUNTY,4.0,30.173296,-85.635585,327390
110039609368,COX BUILDING CORPORATION,17687 ASHLEY DR,PANAMA CITY BEACH,FL,32407,PORTABLE SOURCE,4.0,30.23743,-85.90067,327390
110020175503,CENTRAL CONCRETE SUPERMIX - PEMBROKE PINES,19703 SW 69TH PLACE,PEMBROKE PINES,FL,33332,BROWARD,4.0,26.03156,-80.40947,327390
110027954578,PENSACOLA READY MIX USA,11575 SORRENTO RD,PENSACOLA,FL,32507,ESCAMBIA,4.0,30.35006,-87.38823,327390
110009068436,SOUTHERN PRESTRESSED CONCRETE INC,128 AIRPORT BLVD,PENSACOLA,FL,32503,ESCAMBIA,4.0,30.479429,-87.243226,327390
110070001833,SKANSKA - 3 MILE BRIDGE PRE-CAST FACILITY,2302 INTERLAKEN ST,PENSACOLA,FL,32502,ESCAMBIA,4.0,30.403431,-87.244579,327390
110062734723,"COMPRESSION COAT, INC.",700 S. MYRICK STREET,PENSACOLA,FL,32505,ESCAMBIA,4.0,30.40752,-87.25141,327390
110022411193,"OLDCASTLE APG SOUTH, INC",150 E OLIVE RD,PENSACOLA,FL,32514,ESCAMBIA,4.0,30.50901,-87.25504,327390
110071498268,AMERICAN ASH & AGGREGATE,11999 PATE STREET,PENSACOLA,FL,32514,,4.0,30.56568,-87.2231,327390
110027948988,TARMAC AMERICA LLC,5250 WOODFIELD RD.,PLACIDA,FL,33946,CHARLOTTE,4.0,26.89206,-82.23972,327390
110001413248,JAMES HARDIE BUILDING PRODUCTS,809 SOUTH WOODROW WILSON,PLANT CITY,FL,33563,HILLSBOROUGH,4.0,28.009416,-82.147852,327390
110039622600,HYDRO CONDUIT DIVISION  OF RINKER,4202 SYDNEY RD,PLANT CITY,FL,33566,HILLS,4.0,27.988857,-82.165991,327390
110037326694,COMMERCIAL CONCRETE PRODUCTS INC,2705 SAMMONDS ROAD,PLANT CITY,FL,33563,HILLS,4.0,28.00829,-82.15121,327390
110039617251,ELITE GUNITE LLC,2610 US HWY 92 E,PLANT CITY,FL,33566,PORTABLE SOURCE,4.0,28.021,-82.09187,327390
110021361872,ENTEGRA ROOF TILE CORP,1201 NW 18TH STREET,POMPANO BEACH,FL,33069,BROWARD,4.0,26.25307,-80.13937,327390
110039606334,PRE-CAST SPECIALTIES INC,1380 NE 48TH ST,POMPANO BEACH,FL,33064,BROWARD,4.0,26.290057,-80.105188,327390
110025331889,HANSON PAVER PRODUCTS INC,1590 N ANDREWS AVE EXTENSION,POMPANO BEACH,FL,33069,BROWARD,4.0,26.24909,-80.14284,327390
110039618474,PREMIX-MARBLETITE MANUFACTURING CO,1259 NW 21ST ST,POMPANO BEACH,FL,33069,BROWARD,4.0,26.25611,-80.13932,327390
110039618508,U S CONCRETE PRODUCTS CORP,1878 NW 21ST ST,POMPANO BEACH,FL,33069,BROWARD,4.0,26.25657,-80.1493,327390
110000363712,"BORAL ROOFING, LLC.",1369 HAMMONDVILLE RD,POMPANO BEACH,FL,33069,BROWARD,4.0,26.23703,-80.14133,327390
110039618465,SOUTHERN GROUTS & MORTARS INC,1505 SW 2ND PLACE,POMPANO BEACH,FL,33069,BROWARD,4.0,26.22744,-80.14342,327390
110009076221,OLDCASTLE APG SOUTH,1200 NW 18TH ST,POMPANO BEACH,FL,33069,BROWARD,4.0,26.25306,-80.13973,327390
110039614049,REDBAY SAND COMPANY INC,501 SAND PLANT RD,PONCE DE LEON,FL,32455,PORTABLE SOURCE,4.0,30.58363,-85.97446,327390
110039626982,CAST SYSTEMS LLC,19400 PEACHLAND BLVD,PORT CHARLOTTE,FL,33948,CHARLOTTE,4.0,27.01766,-82.12796,327390
110039626438,DR. GOODROOF INC,11421 TAMIAMI TRAIL,PUNTA GORDA,FL,33955,CHARLOTTE,4.0,26.86521,-81.99608,327390
110070045531,UNIVERSAL CRUSHING,10401 PHEASANT BLVD,PUNTA GORDA,FL,33950,CHARLOTTE,4.0,26.877961,-82.008067,327390
110039604407,FLORIDA SOIL CEMENT LLC,9625 WES KEARNEY WAY,RIVERVIEW,FL,33569,PORTABLE SOURCE,4.0,27.91925,-82.34634,327390
110039619295,RMB CONCRETE & PRECAST INC,460 AVE S,RIVIERA BEACH,FL,33404,PALM BEACH,4.0,,,327390
110039628604,MASCHMEYER - ST PETERSBURG READY MIX PLANT,4451 8TH AVE SO,SAINT PETERSBURG,FL,33711,PINELLAS,4.0,27.76169,-82.69407,327390
110024391852,"HANSON ROOF TILE, INC.",13907 ARNOLD RHODEN RD,SANDERSON,FL,32087,BAKER,4.0,30.24999,-82.25581,327390
110033634805,"ATLANTIC PRECAST CONCRETE, INC",1701 MYRTLE ST,SARASOTA,FL,34234,SARASOTA,4.0,27.36713,-82.53685,327390
110033637679,SARASOTA PRECAST PRODUCTS INC,1415 MYRTLE ST,SARASOTA,FL,34234,SARASOTA,4.0,27.367173,-82.542353,327390
110039632350,STABIL CONCRETE PRODUCTS LLC,7080 28TH ST CT E,SARASOTA,FL,34243,MANATEE,4.0,27.41529,-82.52816,327390
110039609634,"PREFERRED MATERIALS, INC.",1451 MYRTLE ST,SARASOTA,FL,34234,PORTABLE SOURCE,4.0,27.36715,-82.541199,327390
110039618704,BAKER PRECAST CONCRETE SPECIALTIES INC,7740 S GEORGE BLVD,SEBRING,FL,33875,HIGHLANDS,4.0,27.43155,-81.42445,327390
110039609652,"FLORIDA PRECAST INDUSTRIES, INC.",400 DEER TRAIL EAST,SEBRING,FL,33876,PORTABLE SOURCE,4.0,27.43459,-81.38021,327390
110039618606,SEBRING SEPTIC TANK & PRECAST CO,8037 ASSOCIATE BLVD,SEBRING,FL,33876,HIGHLANDS,4.0,27.43269,-81.37079,327390
110006391216,"CAST-CRETE USA, LLC",6324 COUNTY ROAD 579,SEFFNER,FL,33584,HILLSBOROUGH,4.0,28.016946,-82.30465,327390
110039609180,EARTH TECH LLC,15924 HUDSON AVE,SPRING HILL,FL,34610,PORTABLE SOURCE,4.0,28.36282,-82.55212,327390
110039627534,GENERAL ROOFING & TILE CO,4357 8TH AVE S,ST PETERSBURG,FL,33711,PINELLAS,4.0,27.76179,-82.6927,327390
110022874754,CITY OF ST. PETERSBURG,"1635 THIRD AVE, NORTH",ST. PETERSBURG,FL,33713,PINELLAS,4.0,27.77475,-82.65544,327390
110039599440,US PAVERSCAPE INC,1735 SE FEDERAL HWY,STUART,FL,34994,MARTIN,4.0,27.18245,-80.24113,327390
110002104785,HANSON ROOF TILE SUMMERFIELD,13540 SE 31ST AVE..,SUMMERFIELD,FL,34491,MARION,4.0,29.02482,-82.09412,327390
110031414173,EAGLE ROOFING PRODUCTS FLORIDA LLC,1575 E CR 470,SUMTERVILLE,FL,33585,SUMTER,4.0,28.755258,-82.032781,327390
110039609215,REMEDIAL EQUIPMENT SERVICES LLC,1417 S MONROE ST,TALLAHASSEE,FL,32306,PORTABLE SOURCE,4.0,30.42977,-84.28062,327390
110064255826,HAYWARD BAKER INC,6850 BENJAMIN RD,TAMPA,FL,33634,PORTABLE SOURCE,4.0,28.01077,-82.54192,327390
110005637150,CORESLAB STRUCTURES TAMPA INC,6301 N 56TH ST,TAMPA,FL,33610,HILLS,4.0,28.00536,-82.39342,327390
110070262837,"CEMEX CONSTRUCTION MATERIALS FLORIDA, LLC. / PORT OF TAMPA",3711 CAUSEWAY BLVD,TAMPA,FL,33619,HILLSBOROUGH,4.0,27.923366,-82.418177,327390
110006816366,WOODRUFF & SONS INC,1502 NORTH 50TH STREET,TAMPA,FL,33619,HILLS,4.0,27.95843,-82.40179,327390
110039622646,STANDARD CONCRETE PRODUCTS,5801 WEST COMMERCE STREET,TAMPA,FL,33616,HILLS,4.0,27.86175,-82.541513,327390
110015680878,"OLDCASTLE APG SOUTH, INC. D/B/A COASTAL",5455 N 59TH ST,TAMPA,FL,33610,HILLSBOROUGH,4.0,28.000806,-82.389694,327390
110024583501,CONCRETE IMPRESSIONS OF FLORIDA INC - PRECASTING FACILITY,6007 E HANNA RD,TAMPA,FL,33610,HILLS,4.0,28.003421,-82.38776,327390
110032773194,SOUTHERN PRECAST CONCRETE CORPORATION,1502 SAVANNAH AVE,TARPON SPRINGS,FL,34689,PINELLAS,4.0,28.16584,-82.77119,327390
110070045520,AMERICAN PRECAST LLC,1980 HUGHEY KIMAL DR,VENICE,FL,34292,SARASOTA,4.0,27.09214,-82.35397,327390
110071726035,WHITE CEMENT SPECIALTIES,202 SEABOARD AVE,VENICE,FL,34285,,4.0,27.09769,-82.43798,327390
110071320779,WHITE CEMENT SPECIALTIES,202 SEABOARD AVE,VENICE,FL,34285,SARASOTA,4.0,27.09741,-82.438124,327390
110021021286,WHITE CEMENT SPECIALTIES,202 S SEABOARD AVE,VENICE,FL,34285,SARASOTA,4.0,27.09995,-82.439133,327390
110039615949,"UNITED CONCRETE PRODUCTS, LLC",1926 SKEES RD,WEST PALM BEACH,FL,33411,PALM BEACH,4.0,26.70638,-80.15785,327390
110070344021,"PALM BEACH CAST STONE, INC.",809 N RAILROAD AVE,WEST PALM BEACH,FL,33401,PALM BEACH,4.0,26.72042,-80.05525,327390
110020517323,OLDCASTLE COASTAL CONCRETE PRODUCTS,7167 INTERPACE RD,WEST PALM BEACH,FL,33407,PALM BEACH,4.0,26.78138,-80.11284,327390
110035724507,SOUTHEASTERN PRESTRESSED CONCRETE INC,860 BENOIST FARMS RD,WEST PALM BEACH,FL,33411,PALM BEACH,4.0,26.69071,-80.17422,327390
110064855955,"CGA STONE CASTING, LLC",101 BENOIST FARMS RD,WEST PALM BEACH,FL,33411,PALM BEACH COUNTY,4.0,26.68076,-80.17417,327390
110039608449,LOTT'S CONCRETE PRODUCTS INC,429 HENNIS RD,WINTER GARDEN,FL,34787,ORANGE,4.0,28.57414,-81.57115,327390
110031035181,FORTERRA PIPE & PRECAST,1285 LUCERNE LOOP RD,WINTER HAVEN,FL,33881,POLK,4.0,28.07685,-81.68601,327390
110012539654,ACCORD INDUSTRIES LLC,4001 FORSYTH RD,WINTER PARK,FL,32792,ORANGE,4.0,28.603072,-81.298737,327390
110039633171,PREMIX MARBLETITE MANUFACTURING CO,325 OLD SANFORD OVIEDO RD,WINTER SPRINGS,FL,32708,SEMINOLE,4.0,28.70678,-81.2985,327390
110012329257,WEKIWA CONCRETE PRODUCTS,6424 W JONES AVE,ZELLWOOD,FL,32798,ORANGE,4.0,28.730789,-81.615553,327390
110058210154,"OLDCASTLE COASTAL, INC.",3749 COPELAND DR.,ZEPHYRHILLS,FL,33542,PASCO,4.0,28.21241,-82.16721,327390
110063930723,WOODRUFF & SONS INC,,,FL,,MULTIPLE (PORTABLE FACILITIES),4.0,,,327390
110063954476,WOODRUFF & SONS INC,,,FL,,MULTIPLE (PORTABLE FACILITIES),4.0,,,327390
110063930439,"WOODRUFF & SONS, INC.",,,FL,,MULTIPLE (PORTABLE FACILITIES),4.0,,,327390
110070526487,OLDCASTLE INFRASTRUCTURE,3000 NEW MCEVER RD,ACWORTH,GA,30101,COBB COUNTY,4.0,34.05642,-84.64784,327390
110064666160,OLD CASTLE - ACWORTH,3000 NEW MCEVER RD NW,ACWORTH,GA,30101,CHEROKEE,4.0,34.05705,-84.63786,327390
110025331549,HANSON  - ATHENS,625B HANCOCK INDUSTRIAL WAY.,ATHENS,GA,30605,CLARKE,4.0,33.96309,-83.33697,327390
110005692054,STO CORP ATLANTA MFG FACILITY,6175 RIVERSIDE DR SW,ATLANTA,GA,30331,FULTON,4.0,33.70942,-84.58968,327390
110014375185,"HUNTSMAN PIGMENTS AMERICAS, LLC (DBA SOUTHERN COLOR)",7 SWISHER DR,CARTERSVILLE,GA,30120,BARTOW,4.0,34.14579,-84.79511,327390
110002009807,TINDALL CONCRETE GEORGIA INCORPORATED,3361 GRANT ROAD,CONLEY,GA,30288,CLAYTON,4.0,33.64386,-84.3194,327390
110007255834,"OLDCASTLE RETAIL, INC. DBA BONSAL AMERICAN",4083 BONSAL ROAD,CONLEY,GA,30288,DE KALB,4.0,33.6617,-84.32776,327390
110042000410,DIVERSITECH,1512 OLD COVINGTON HWY,CONYERS,GA,30012,ROCKDALE,4.0,33.673868,-84.037253,327390
110016749054,CLASSIC SURROUNDS LLC,2610 14TH AVE EAST,CORDELE,GA,31010,CRISP,,31.964318,-83.739908,327390
110007047061,NEW NGC INC,2 BRAMPTON RD.,GARDEN CITY,GA,31408,CHATHAM,4.0,32.10819,-81.14691,327390
110071955635,OLDCASTLE SAVANNAH,881 HODGEVILLE RD,GUYTON,GA,31312,EFFINGHAM COUNTY,4.0,32.23386,-81.27307,327390
110007249389,METROMONT LLC - HIRAM PLANT,RT. 2,HIRAM,GA,30141,PAULDING,4.0,33.87579,-84.762329,327390
110000355767,CUSTOM BUILDING PRODUCTS,2155 SWEETWATER BOULEVARD,LITHIA SPRINGS,GA,30122,DOUGLAS,4.0,33.77203,-84.64618,327390
110002101430,OLDCASTLE PRECAST TELCO,27 AMLAJACK BOULEVARD,NEWNAN,GA,30265,COWETA,4.0,33.40221,-84.74816,327390
110070324198,"CONCRETE PIPE & PRECAST, LLC",500 EBENNEZER ROAD,RINCON,GA,31326,,4.0,32.341227,-81.243354,327390
110001420766,OLDCASTLE PRECAST INC,4478 GREER CIRCLE,STONE MOUNTAIN,GA,30083,DEKALB,4.0,33.832519,-84.204618,327390
110070557856,OLDCASTLE PRECAST INC,4478 GREER CIR,STONE MOUNTAIN,GA,30083,DEKALB COUNTY,4.0,33.832536,-84.204821,327390
110012198683,BONDED MATERIALS CO,91 400 KOMOHANA ST,KAPOLEI,HI,96707,HONOLULU,9.0,21.311415,-158.093615,327390
110071785059,BONDED MATERIALS COMPANY MANUFACTURING CENTER,91-400 KOMOHANA STREET,KAPOLEI,HI,96707,HONOLULU COUNTY,9.0,21.305729,-158.093899,327390
110043611491,"TUNNEL MILL POLYMER, INC",104 MAIN ST,ALDEN,IA,50006,HARDIN,7.0,42.521098,-93.375412,327390
110007079525,WILBERT VAULT  CO.,1210BLAIRSFERRY RD.,CEDAR RAPIDS,IA,52402,LINN,7.0,42.034862,-91.687049,327390
110007046320,LEHIGH PORTLAND CO.,1011 BLAIRS FERRY ROAD,CEDAR RAPIDS,IA,52402,LINN,7.0,42.031727,-91.617898,327390
110069312880,FORTERRA CONCRETE PRODUCTS - CEDAR RAPIDS,3921 J ST SW,CEDAR RAPIDS,IA,52404,LINN COUNTY,7.0,41.9404,-91.66668,327390
110001325432,FORTERRA CONCRETE PRODUCTS,3921 J STREET SOUTHWEST,CEDAR RAPIDS,IA,52404,LINN,7.0,41.9404,-91.66668,327390
110061087210,RAIL ONE USA CORP,4275 S 59TH ST,CLINTON,IA,52732,CLINTON,7.0,,,327390
110043611384,IPC INC,3312 SE GRANGER,DES MOINES,IA,50317,POLK,7.0,41.573917,-93.550814,327390
110069312899,FORTERRA CONCRETE PRODUCTS - DES MOINES,2825 MAURY ST,DES MOINES,IA,50317,POLK COUNTY,7.0,41.58015,-93.55912,327390
110022405958,WILLIAMS WILBERT VAULT WORKS INC,911 JARVIS,DES MOINES,IA,50315,POLK,7.0,41.5529,-93.62623,327390
110043301067,DUKES PROPERTIES,2020 NE BROADWAY AVE,DES MOINES,IA,50313,POLK,7.0,41.644145,-93.584715,327390
110038904576,BREEDEN READY MIX,6207 N.W. BEAVER DR.,DES MOINES,IA,50323,POLK,7.0,41.65127,-93.68075,327390
110001765251,EDWARDS CAST STONE COMPANY,777 EDWARDS ROAD,DUBUQUE,IA,52003,DUBUQUE,7.0,42.47103,-90.69063,327390
110071334916,ELDRIDGE BAG PLANT,600 SLOPERTOWN ROAD,ELDRIDGE,IA,52748,,7.0,41.61819,-90.60305,327390
110069315262,FORTERRA CONCRETE PRODUCTS - HUMBOLDT,2563 GOTCH PARK RD,HUMBOLDT,IA,50548,HUMBOLDT COUNTY,7.0,42.67957,-94.20721,327390
110069315271,FORTERRA CONCRETE PRODUCTS - IOWA FALLS,540 COUNTRY CLUB RD,IOWA FALLS,IA,50126,HARDIN COUNTY,7.0,42.514397,-93.253696,327390
110070277243,HANCOCK CONCRETE PRODUCTS,218 S LAKE ST,LAKE VIEW,IA,51450,SAC COUNTY,7.0,42.30583,-95.04738,327390
110070309822,FORTERRA PIPE & PRECAST,2002 EAST OLIVE ST.,MARSHALLTOWN,IA,50158,MARSHALL COUNTY,7.0,42.02841,-92.8788,327390
110012151919,"HAWKEYE PEDERSHAAB CONCRETE TECHNOLOGIES, INC",506 S WAPELLO ST-HWY 61 S,MEDIAPOLIS,IA,52637,DES MOINES,7.0,41.004566,-91.170014,327390
110070550477,TCC - MUSCATINE,2510 PETTIBONE AVE,MUSCATINE,IA,52761,MUSCATINE COUNTY,7.0,41.37425,-91.07593,327390
110022402782,NEW HAMPTON METAL FAB,928 W MILWAUKEE,NEW HAMPTON,IA,50659,CHICKASAW,7.0,43.067,-92.32981,327390
110041351952,CROELL REDI-MIX INC - PARKERSBURG WASH,PLANT - 22956 310TH AVE,PARKERSBURG,IA,50665,BUTLER,7.0,42.59935,-92.77126,327390
110070244731,TCC - VINTON,1610 W D ST,VINTON,IA,52349,BENTON COUNTY,7.0,42.17388,-92.04335,327390
110070814070,FORTERRA PIPE & PRECAST - WEST DES MOINES,525 S 11TH ST,WEST DES MOINES,IA,50265,POLK COUNTY,7.0,41.566763,-93.717941,327390
110038882386,DUDES BURIAL VAULT C,230 S. 11TH,WEST DES MOINES,IA,50265,POLK,7.0,41.568756,-93.718088,327390
110071781181,MEMORIAL MONUMENTS,2001 EAST 16TH STREET,BURLEY,ID,83318,CASSIA,10.0,42.5325,-113.768056,327390
110031002064,FORTERRA STRUCTURAL PRECAST CALDWELL,20059 SIMPLOT BLVD,CALDWELL,ID,83607,CANYON,10.0,43.66957,-116.79274,327390
110071782949,MEMORIAL MONUMENTS,1609 SOUTH 5TH AVE,CITY OF POCATELLO,ID,83201,BANNOCK,10.0,42.854779,-112.430494,327390
110055551415,LAR-KEN SEPTIC TANKS INC,411 REMINGTON,GARDEN CITY,ID,83703,ADA,10.0,43.648203,-116.268469,327390
110005789030,OLDCASTLE PRECAST,2240 US-26,IDAHO FALLS,ID,83402,BONNEVILLE,10.0,43.47842,-112.04859,327390
110071875808,AMCOR PRECAST,2240 S YELLOWSTONE HWY,IDAHO FALLS,ID,83402,BONNEVILLE,10.0,43.47762,-112.0496,327390
110070273118,MEMORIAL MONUMENTS & VAULTS,598 W FRANKLIN RD,MERIDIAN,ID,83642,ADA,10.0,43.604984,-116.401107,327390
110071955588,OLDCASTLE NAMPA MADISON,1319 MADISON AVE,NAMPA,ID,83687,CANYON COUNTY,10.0,43.595325,-116.561912,327390
110015634367,AMCOR PRECAST,16419 TEN LN,NAMPA,ID,83687,CANYON,10.0,43.61176,-116.58318,327390
110070791072,CXT INCORPORATED,"670 E FLAMINGO AVE, SUITE 300",NAMPA,ID,83687,CANYON COUNTY,10.0,,,327390
110001954038,LOMBARD ARCH PRECAST PRODUCTS CO,4245 W 123RD ST,ALSIP,IL,60803,COOK,5.0,41.6688,-87.72618,327390
110001343813,PALLET CITY INC,117 WEILER RD,ARLINGTON HEIGHTS,IL,60005,COOK,5.0,42.022325,-87.946831,327390
110018162879,UNILOCK,301 EAST SULLIVAN ROAD,AURORA,IL,60505,KANE,5.0,41.787242,-88.307265,327390
110027154451,HOWARD CONCRETE PUMPING CO INC,CARLYLE AVE & GREEN MT RD,BELLEVILLE,IL,62221,ST CLAIR,5.0,38.522032,-89.922917,327390
110001801186,NORTHERN IL WILBERT VAULT CO INC,845 E JACKSON ST,BELVIDERE,IL,61008,BOONE,5.0,42.268667,-88.838641,327390
110007313246,PRESTRESS ENGINEERING CO,R R 1,BLACKSTONE,IL,61313,LIVINGSTON,5.0,41.08968,-88.634326,327390
110011266860,GRABER CONCRETE PIPE COMPANY,24W121 ARMY TRAIL ROAD,BLOOMINGDALE,IL,60108,DU PAGE,5.0,41.93756,-88.09416,327390
110001286536,VCNA PRAIRIE ILLINOIS INC YARD 1001,7601 WEST 79TH STREET,BRIDGEVIEW,IL,60455,COOK,5.0,41.746344,-87.808876,327390
110012704699,WILBERT FUNERAL SEVICES INC,2913 GARDNER RD.,BROADVIEW,IL,60155,COOK,5.0,41.85223,-87.86722,327390
110007065825,V & R MATERIALS LLC,310 BURNHAM AVE,CALUMET CITY,IL,60409,COOK,5.0,41.631348,-87.541791,327390
110007043270,ODUM CONCRETE PROD,ROUTE 2,CARTERVILLE,IL,62918,WILLIAMSON,5.0,,,327390
110002434517,LOWE ENTERPRISES INC,3410 NORTHWEST HWY.,CARY,IL,60013,MCHENRY,5.0,42.221221,-88.264235,327390
110007281315,CRAFT CONCRETE PRODUCTS INC,134 S HIGHWAY 14,CARY,IL,60013,MCHENRY,5.0,42.221,-88.235,327390
110002434483,WELCH BROS INC,3402 NORTHWEST HIGHWAY,CARY,IL,60013,MCHENRY,5.0,42.220701,-88.263328,327390
110000606247,DAYTON SUPERIOR SPECIALTY CHEMICAL CORP. SYMONS,530 MADISON AVE,CENTRALIA,IL,62801,MARION,5.0,38.57309,-89.128403,327390
110001356158,CHAMPAIGN BUILDERS SUPPLY CO,30 E JOHN ST,CHAMPAIGN,IL,61824,CHAMPAIGN,5.0,40.10935,-88.24179,327390
110001804343,DICICCO CONCRETE PRODUCTS CO,128 E 14TH ST,CHICAGO HEIGHTS,IL,60411,COOK,5.0,41.505402,-87.633471,327390
110001808544,CONCRETE UNIT STEP CO INC,8915 COLLINSVILLE RD,COLLINSVILLE,IL,62234,MADISON,5.0,38.65936,-90.0443,327390
110038836329,PRETRESS ENGINEERING,4014 NOWEST HIGHWAY,CRYSTAL LAKE,IL,60014,MC HENRY,5.0,,,327390
110001807527,SPANCRETE OF ILLINOIS,4012 ROUTE 14,CRYSTAL LAKE,IL,60014,MC HENRY,5.0,42.219711,-88.31334,327390
110001854422,MID AMERICA SAND & GRAVEL CO,2750 NORTH JASPER STREET,DECATUR,IL,62526,MACON,5.0,39.872719,-88.940057,327390
110001288419,ST LOUIS FLEXICORE INC,6351 COLLINSVILLE RD,EAST ST LOUIS,IL,62201,MADISON,5.0,38.66155,-90.08131,327390
110001686346,PRESTRESSED SLABS INC,2400 MCCASLAND AVE,EAST ST LOUIS,IL,62207,ST. CLAIR,5.0,38.60239,-90.14224,327390
110018078514,QUIKRETE-CHICAGO,1 S 950 LORANG RD,ELBURN,IL,60119,KANE,5.0,41.837908,-88.492678,327390
110002440412,QUIKRETE-CHICAGO,1 S 950 LORANG RD,ELBURN,IL,60119,KANE,5.0,41.837908,-88.492678,327390
110007262167,ELMHURST CHICAGO STONE,ROUTE 25,ELGIN,IL,60120,KANE,5.0,41.977243,-88.274861,327390
110070557793,OLDCASTLE,1375 GIFFORD RD,ELGIN,IL,60120,COOK COUNTY,5.0,42.00529,-88.24701,327390
110016689788,OLDCASTLE INFRASTRUCTURE,1375 GIFFORD RD,ELGIN,IL,60120,COOK,5.0,42.005321,-88.245443,327390
110001386376,WELCH BROS INC,1050 ST. CHARLES ST.,ELGIN,IL,60120,KANE,5.0,42.013527,-88.270277,327390
110071882774,BADGER SHREDDING PRODUCTS INC,1245 N 1ST ST,FAIRMONT CITY,IL,62201,ST. CLAIR,5.0,38.641562,-90.143959,327390
110018393406,BADGER SHREDDING PRODUCTS INC,1295 N 1ST ST,FAIRMONT CITY,IL,62201,ST CLAIR,5.0,38.64231,-90.14302,327390
110001381987,FARMINGTON WILBERT VAULT,22413 EAST STATE ROUTE 116,FARMINGTON,IL,61531,FULTON,5.0,40.70498,-90.017017,327390
110071871644,FARMINGTON WILBERT VAULT,22413 E STATE ROUTE 116,FARMINGTON,IL,61531,FULTON,5.0,40.70498,-90.017017,327390
110001811683,MIDWEST CONCRETE PRODUCTS CO.,9301 W GRAND AVENUE,FRANKLIN PARK,IL,60131,COOK,5.0,41.9292,-87.85725,327390
110001811102,CONCRETE SPECIALTIES CO,11825 FRANKLIN AVE.,FRANKLIN PARK,IL,60131,COOK,5.0,41.947085,-87.915849,327390
110070604900,CONCRETE SPECIALTIES CO,11825 FRANKLIN AVE,FRANKLIN PARK,IL,60131,COOK COUNTY,5.0,41.94829,-87.91529,327390
110001812192,"AMERICAN STONE MIX, INC. - FRANKLIN PARK",10352 FRANKLIN AVENUE,FRANKLIN PARK,IL,60131,COOK,5.0,41.94101,-87.883663,327390
110041025280,ST LOUIS PRESTRESS INC,16 COMMERCIAL CT,GLEN CARBON,IL,62034,MADISON,5.0,38.78117,-89.96085,327390
110018407366,SYMONS CORP/ACCESSORY PRODUCTS DIV,GLENRIDGE INDUSTRIAL PARK,GLENRIDGE,IL,62882,MARION,5.0,38.573139,-89.12847,327390
110001935210,WALSH CONST. CO.,2300 ADMIRAL EWEN DR.,GLENVIEW,IL,60025,COOK,5.0,42.08667,-87.82378,327390
110000790653,HOLCIM (US) INC,2500 PORTLAND RD,GRAND CHAIN,IL,62941,MASSAC,5.0,37.216805,-88.879849,327390
110018063780,"AMERICAN STONE-MIX, INC.",RT 51,HEYWORTH,IL,61745,MCLEAN,5.0,40.3211,-88.9895,327390
110018200383,KNAUER MOD WILBERT BURIAL VAUL,19505 NE FRONTAGE RD,JOLIET,IL,60435,WILL,5.0,41.527822,-88.177895,327390
110001372416,MINNICK ILLINOIS LLC,2121 MAPLE ROAD,JOLIET,IL,60432,WILL,5.0,41.547301,-88.029857,327390
110007034468,SWANSON PRE-CAST INC,RURAL,KANEVILLE,IL,60144,KANE,5.0,,,327390
110001815260,MEYER MATERIAL CO LAKE ZURICH PLANT 17,204 GENESEE ST,LAKE ZURICH,IL,60047,LAKE,5.0,42.36235,-87.831317,327390
110070557794,OLDCASTLE,780 S MATERIAL RD,LOCKPORT,IL,60441,WILL COUNTY,5.0,41.59574,-88.06926,327390
110007260686,J W PETERS & SONS INC-LOCKPORT FACILITY,RT 53 NORTH OF RT 7,LOCKPORT,IL,60441,WILL,5.0,,,327390
110055963523,JENNCHEM,11670 N THOMPSONVILLE RD,MACEDONIA,IL,62860,FRANKLIN,5.0,38.03365,-88.759924,327390
110018284408,CONCRETE SPECIALTIES CO HAZEL CREST,16850 S RICHMOND ST,MARKHAM,IL,60428,COOK,5.0,41.584888,-87.688435,327390
110007225458,"ELMER LARSON, INC.",I80 & ROUTE 45,MOKENA,IL,60448,WILL,5.0,,,327390
110070936661,NORTHFIELD MUNDELEIN PLANT,4 HUNT CT,MUNDELEIN,IL,60060,LAKE COUNTY,5.0,42.243589,-87.981078,327390
110071870501,REX VAULT & MAUSOLEUM SERVICE INC,HWY 33 E,NEWTON,IL,62448,JASPER,5.0,38.990664,-88.148795,327390
110022442784,REX VAULT & MAUSOLEUM SERVICE INC,HWY 33 EAST,NEWTON,IL,62448,JASPER,5.0,38.990664,-88.148795,327390
110018381071,DAYTON SUPERIOR CORP,402 S FIRST ST,OREGON,IL,61061,OGLE,5.0,42.011053,-89.328868,327390
110001358600,LEE FARMS EXCAVATING INC,100 TECHNOLOGY LANE,PAXTON,IL,60957,FORD,5.0,40.453135,-88.115843,327390
110001339392,DBA CORNICK CONCRETE PRODUCTS,11150 GARMAN RD.,PEKIN,IL,61554,TAZEWELL,5.0,40.533339,-89.707606,327390
110071433004,QUIKRETE PEORIA,11150 GARMAN RD,PEKIN,IL,61554,TAZEWELL,5.0,40.533368,-89.70746,327390
110018318649,JAMES HARDIE BUILDING PRODUCTS INC,17 UNYTITE DR,PERU,IL,61354,LASALLE,5.0,41.372514,-89.138584,327390
110024849798,DUKANE PRECAST INC,13733 US RTE 30,PLAINFIELD,IL,60544,WILL,5.0,41.632185,-88.217821,327390
110001286402,UTILITY CONCRETE PRODUCTS,1801 N VAN DYKE ROAD,PLAINFIELD,IL,60544,WILL,5.0,41.626366,-88.212348,327390
110007266323,AVERY READY MIX,RURAL ROUTE 2,PLAINFIELD,IL,60544,WILL,5.0,,,327390
110018273492,NORTHWIND CONCRETE PRODUCTS CO,2513 W 140TH PL,POSEN,IL,60469,COOK,5.0,41.637735,-87.681912,327390
110018376176,QUINCY WILBERT VAULT CO,4128 WISMANN LN,QUINCY,IL,62305,ADAMS,5.0,39.955137,-91.349405,327390
110002386908,PBM CONCRETE INC,111 FIFTH AVENUE,ROCHELLE,IL,61068,OGLE,5.0,41.924619,-89.061696,327390
110001340549,NORTHWEST ILLINOIS CONSTRUCTION CO,1812 MCNEIL RD,ROCK FALLS,IL,61071,WHITESIDE,5.0,41.76483,-89.6674,327390
110063231827,OLDCASTLE INFRASTRUCTURE,780 S MATERIAL RD,ROMEOVILLE,IL,60446,WILL COUNTY,5.0,41.5957,-88.071284,327390
110070604901,OLDCASTLE INFRASTRUCTURE,780 S MATERIAL RD,ROMEOVILLE,IL,60446,WILL,5.0,41.5957,-88.071284,327390
110001289631,ROCK-TRED CORP,"3415 W, HOWARD",SKOKIE,IL,60076,COOK,5.0,42.019091,-87.714493,327390
110071718457,ROCK-TRED CORP,3415 W HOWARD,SKOKIE,IL,60076,COOK,5.0,42.016293,-87.71702,327390
110001290996,NORTHWIND CONCRETE PRODUCTS CO,4633 PRAIRIE HILL RD.,SOUTH BELOIT,IL,61080,WINNEBAGO,5.0,42.467816,-89.026809,327390
110001290905,MID-STATES CONCRETE PRODUCTS CO,500 S. PARK AVENUE,SOUTH BELOIT,IL,61080,WINNEBAGO,5.0,42.48988,-89.023193,327390
110003060972,TPG PRESSURE INC,4416 PRAIRIE HILL RD,SOUTH BELOIT,IL,61080,WINNEBAGO,5.0,42.471256,-89.031435,327390
110038933900,PATE FOODS INC,501 AND 510 EASTERN AVE,SOUTH BELOIT,IL,61080,WINNEBAGO,5.0,,,327390
110001813253,PERMACRETE PRODUCTS CO/ESSROC MATERIALS,220 E. 168TH STREET,SOUTH HOLLAND,IL,60473,COOK,5.0,41.58999,-87.61098,327390
110001338794,SPRINGFIELD CONCRETE RECYCLING LLC,2116 E. MOFFAT ST.,SPRINGFIELD,IL,62702,SANGAMON,5.0,39.80736,-89.625299,327390
110001287205,COUNTY MATERIALS CORP,2917 N DIRKSEN PKWY,SPRINGFIELD,IL,62702,SANGAMON,5.0,39.84732,-89.60417,327390
110033005879,LEWIS MEMORIAL CHRISTIAN VILLAGE,3400 W WASHINGTON ST,SPRINGFIELD,IL,62711,SANGAMON,5.0,39.800519,-89.719571,327390
110001367486,STERLING WILBERT VAULT CO,2411 W 4TH ST,STERLING,IL,61081,WHITESIDE,5.0,41.790483,-89.727759,327390
110001808385,MEYER CONCRETE PRODUCTS INC.,600 N. ASH ST.,TRENTON,IL,62293,CLINTON,5.0,38.610497,-89.672,327390
110001380899,URBANA RECYCLING CO,3060 OAK ST,URBANA,IL,61802,CHAMPAIGN,5.0,40.145838,-88.224572,327390
110010290782,VANDALIA CONCRETE PRODUCTS INC,110 N 8TH ST,VANDALIA,IL,62471,FAYETTE,5.0,38.961972,-89.100295,327390
110018388127,"CRAZY HORSE CONCRETE, INC.",521 N HARKER ST,WAVERLY,IL,62692,MORGAN,5.0,39.595994,-89.950115,327390
110001814136,PACKAGED CONCRETE INC.,391 CHARLES COURT,WEST CHICAGO,IL,60185,DU PAGE,5.0,41.87819,-88.2306,327390
110018131369,PACKAGED CONCRETE INC,27W045 ST. CHARLES RD,WHEATON,IL,60187,DUPAGE,5.0,41.9008,-88.1344,327390
110018412840,KIENSTRA BLOCK & BRICK LLC,301 W FERGUSON,WOOD RIVER,IL,62095,MADISON,5.0,38.86008,-90.10303,327390
110071359997,VALMONT NEWMARK INCORPORATED,1301 MAPLE ST,BRISTOL,IN,46507,ELKHART,5.0,41.703831,-85.824505,327390
110071899310,FABCON PRECAST,14701 LIMESTONE BRANCH RD,CHARLESTOWN,IN,47111,CLARK,5.0,38.461667,-85.595278,327390
110070050900,BRISTOL GROUP,14701 ROCKET PLANT RD,CHARLESTOWN,IN,47111,CLARK COUNTY,5.0,38.461667,-85.595278,327390
110071145473,"PERMABASE BUILDING PRODUCTS, LLC",75 IVY LN,CLINTON,IN,47842,VERMILLION,5.0,,,327390
110020900854,NEW NGC INC. D/B/A NATIONAL GYPSUM COMPA,75 IVY LANE,CLINTON,IN,47842,VERMILLION,5.0,39.683775,-87.401605,327390
110022523205,"OLDCASTLE PRECAST, INC",200 QUALITY PL NW,CORYDON,IN,47112,HARRISON,5.0,38.24867,-86.13125,327390
110069222889,PRESTRESS SERVICES INDUSTRIES LLC,7855 NW WINCHESTER RD,DECATUR,IN,46733,ADAMS COUNTY,5.0,40.85818,-84.95843,327390
110063999268,PRESTRESS SERVICES INDUSTRIES LLC,7855 NW WINCHESTER RD,DECATUR,IN,46733,ADAMS COUNTY,5.0,40.85818,-84.95843,327390
110055146710,TRENWA INCORPORATED,13268 INNOVATION DR,FLORENCE,IN,47020,SWITZERLAND,5.0,38.78614,-84.96517,327390
110070033350,"BICKES, INC. DBA WILBERT BURIAL VAULT COMPANY",US HWY 41 N & SR 168,FORT BRANCH,IN,47648,GIBSON,5.0,38.249518,-87.560567,327390
110015680379,CUSTOM BUILDING PRODUCTS INC,3800 W STATE RD 28,FRANKFORT,IN,46041,CLINTON,5.0,40.27907,-86.57756,327390
110058638951,CASH CONCRETE PRODUCTS PLANT 1,1541 S CR 450 E,GREENCASTLE,IN,46135,PUTNAM,5.0,39.634409,-86.92981,327390
110058764289,RINKER MATERIALS,6662 W CR 350 N,GREENFIELD,IN,46140,HANCOCK,5.0,39.83507,-85.92832,327390
110067141881,ATMI PLANT 2,6324 W STONER DR,GREENFIELD,IN,46140,HANCOCK,5.0,39.839537,-85.920274,327390
110001354052,"HARTFORD CONCRETE PRODUCTS, INC.",1400 N WABASH AVE,HARTFORD CITY,IN,47348,BLACKFORD,5.0,40.46259,-85.37951,327390
110070047489,RINKER MATERIALS,1501 S HOLT RD,INDIANAPOLIS,IN,46241,MARION,5.0,39.74555,-86.22525,327390
110016752496,MINTEK RESOURCES INCORPORATED,4192 SOUTH HARDING STREET,INDIANAPOLIS,IN,46217,MARION,5.0,39.703771,-86.186836,327390
110012064452,CORESLAB STRUCTURES INC,1030 S KITLEY,INDIANAPOLIS,IN,46203,MARION,5.0,39.75411,-86.05448,327390
110070108930,COUNTY MATERIALS LAYDOWN YARD EXPANSION,8 EAST JUNCTION ST,MAXWELL,IN,46154,HANCOCK,5.0,39.85772,-85.7677,327390
110070504894,REX VAULT SERVICE OF ODON,714 W ELNORA ST,ODON,IN,47562,DAVIESS,5.0,38.84419,-87.00579,327390
110031468258,PLYCEM USA INCORPORATED,1001 W INDUSTRIAL DR,TERRE HAUTE,IN,47802,VIGO,5.0,39.34039,-87.43621,327390
110070266344,TERRE HAUTE WILBERT BURIAL VAULT COMPANY,509 E PRESTON ST,TERRE HAUTE,IN,47802,VIGO,5.0,39.43925,-87.41041,327390
110002073602,HOG SLAT INC,18506 S RANGELINE RD,UNIVERSAL,IN,47884,VERMILLION,5.0,40.054,-87.460556,327390
110069458713,ELITE CRETE SYSTEMS INCORPORATED,1061 TRANSPORT DR,VALPARAISO,IN,46383,PORTER,,41.45899,-87.01638,327390
110058515824,RINKER MATERIALS CONCRETE PIPE DIVISION,4360 WHITELICK DR,WHITESTOWN,IN,46075,BOONE,5.0,39.97673,-86.394293,327390
110070685290,MINNICK MIDWEST LLC DBA MIDWEST TILE & CONCRETE PRODUCTS,4309 WEBSTER RD,WOODBURN,IN,46797,ALLEN,5.0,41.122497,-84.925171,327390
110001373576,STRESS-CAST INC.,644 E. SALEMSBORG RD.,ASSARIA,KS,67416,SALINE,7.0,38.69638,-97.60239,327390
110007036518,"OLDCASTLE PRECAST, INC.",S34-T21S-R15,BURLINGTON,KS,66839,COFFEY,7.0,38.183435,-98.958031,327390
110007289932,K & L CONCRETE,824 HWY 56,ELKHART,KS,67950,MORTON,7.0,36.99862,-101.894416,327390
110001306738,CONCRETE PRODUCTS INC.,100 N. 2ND ST.,GARDEN CITY,KS,67846,FINNEY,7.0,37.96323,-100.8668,327390
110031009771,ENTERPRISE PRECAST CONCRETE OF KANSAS,5525 KAW DRIVE,KANSAS CITY,KS,66102,WYANDOTTE,7.0,39.105197,-94.705674,327390
110009967063,OMEGA CONCRETE SYSTEMS,56TH & KAW (K-32),KANSAS CITY,KS,66111,WYANDOTTE,7.0,39.0523,-94.7277,327390
110017522215,"CORESLAB STRUCTURES,KS, INC",759 S. 65TH STREET,KANSAS CITY,KS,66111,WYANDOTTE,7.0,39.08399,-94.72866,327390
110007364299,LONESTAR-K C CONCRETE TIE CO.,8905 KAW DR,KANSAS CITY,KS,00000,WYANDOTTE,7.0,39.06248,-94.78703,327390
110001239491,WAMEGO SAND CO. INC,441 MCDOWELL CREEK RD,MANHATTAN,KS,66502,RILEY,7.0,39.073026,-96.656321,327390
110009969926,PRESTRESSED CONCRETE,2800 NORTH OLD 81 HIGHWAY,NEWTON,KS,67114,HARVEY,7.0,38.0494,-97.336,327390
110069315468,FORTERRA CONCRETE PRODUCTS - OSKALOOSA,5150 US-59,OSKALOOSA,KS,66066,JEFFERSON COUNTY,7.0,39.138654,-95.32874,327390
110011222701,WILBERT FUNERAL SERVICES,1544 26000TH ROAD,PARSONS,KS,67357,LABETTE,7.0,37.36934,-95.26497,327390
110067572736,FABCON PRECAST,9421 THOMAS ROAD,PLEASANTON,KS,66075,LINN COUNTY,7.0,38.1595,-94.71376,327390
110038945336,NORTHERN IMPROVEMENT CO.,NO STREET ADDRESS,PORTABLE,KS,00000,PORTABLE SOURCE,7.0,,,327390
110007067529,FORTERRA PIPE & PRECAST-BONNER SPRINGS,23600 W 40TH,SHAWNEE,KS,66226,JOHNSON,7.0,39.056183,-94.860049,327390
110009969105,OLDCASTLE INFRASTRUCTURE,5230 NORTHWEST 17TH STREET,TOPEKA,KS,66618,SHAWNEE,7.0,39.08014,-95.74462,327390
110038939263,"CONCRETE SUPPLY OF TOPEKA, INC.",I-70 & MACVICAR,TOPEKA,KS,66606,SHAWNEE,7.0,39.072,-95.7054,327390
110071906319,"WILBERT FUNERAL SERVICES, INC. - WAMEGO",405 MILLER DR,WAMEGO,KS,66547,POTTAWATOMIE,7.0,39.208886,-96.290292,327390
110001239650,"THE QUIKRETE COMPANIES, INC.",6500 W. 21ST,WICHITA,KS,67212,SEDGWICK,7.0,37.72335,-97.421238,327390
110013873415,SHERMAN DIXIE CONCRETE INDUSTRIES INC,ELIZABETHTOWN,ELIZABETHTOWN,KY,42701,HARDIN,4.0,37.681111,-85.839444,327390
110039638620,TRI COUNTY CONCRETE INC,1700 US 23 S,HAGERHILL,KY,41222,JOHNSON,4.0,37.7775,-82.807778,327390
110058926701,PRESTRESS SERVICES OF LEXINGTON,5501 BRIAR HILL RD,LEXINGTON,KY,40555,FAYETTE,4.0,38.07026,-84.32427,327390
110013859903,CLOUD CONCRETE PRODUCTS,1562 OLD FRANKFORT PIKE,LEXINGTON,KY,40504,FAYETTE,4.0,38.05933,-84.53525,327390
110060280789,OLDCASTLE PRECAST INC,747 ALLENRIDGE PT,LEXINGTON,KY,40510,FAYETTE,4.0,38.0638,-84.55918,327390
110013837358,SHERMAN DIXIE CONCRETE INDUSTRIES,759 PHILLIPS LN,LEXINGTON,KY,40504,FAYETTE,4.0,38.05696,-84.53291,327390
110006655967,"ALLIED READY-MIX, CANE RUN RD",7510 CANE RUN RD,LOUISVILLE,KY,40258,JEFFERSON,4.0,38.14402,-85.89666,327390
110038048127,"ALLIED READY-MIX, FRANKFORT AVE",1460 FRANKFORT AVE,LOUISVILLE,KY,40206,JEFFERSON,4.0,38.26167,-85.72377,327390
110071720104,QUIKRETE - KENTUCKY,3106 MILLERS LN,LOUISVILLE,KY,40216,JEFFERSON,4.0,38.215586,-85.814148,327390
110006751434,INDEPENDENT CONCRETE PIPE CO OF KY,3615 KRAMERS LN,LOUISVILLE,KY,40216,JEFFERSON,4.0,38.20362,-85.84253,327390
110071720548,STANDARD SUPPLY COMPANY,452 LEXINGTON ST,MAYSVILLE,KY,41056,MASON,4.0,38.64057,-83.751339,327390
110063999222,PRESTRESS SERVICES INDUSTRIES LLC-MELBOURNE BRANCH,5837 MARY INGLES HWY,MELBOURNE,KY,41059,CAMPBELL COUNTY,4.0,39.02879,-84.35771,327390
110006756199,BELL CONCRETE INDUSTRIES,309 MACK AVE,MIDDLESBORO,KY,40965,BELL,4.0,36.620264,-83.709868,327390
110020042595,WASKEY BRIDGES INC,2651 N FLANNERY RD,BATON ROUGE,LA,70814,EAST BATON ROUGE,6.0,30.47453,-91.03279,327390
110006547950,BR CRETE OPERATING LLC - LOUISIANA CONCRETE PRODUCTS,I-10  HIGHLAND RD,BATON ROUGE,LA,70898,EAST BATON ROUGE,6.0,30.42724,-91.16886,327390
110008391604,HOLCIM US INC - BATON ROUGE TERMINAL,1255 AIRLINE HWY,BATON ROUGE,LA,70892,EAST BATON ROUGE,6.0,30.5075,-91.18836,327390
110058902512,PONTCHARTRAIN MATERIALS CORP LLC - PMC B,2611 ENGINEERS RD,BELLE CHASSE,LA,70037,PLAQUEMINES,6.0,29.84021,-90.0437,327390
110003366642,CELLXION LLC - SABRE BUILDING SYSTEMS BY CELLXION,5031 HAZEL JONES RD,BOSSIER CITY,LA,71111,BOSSIER,6.0,32.55148,-93.65249,327390
110070936684,SOUTH TOWNE CONCRETE PRODUCTS INC,11749 MANSFIELD RD,KEITHVILLE,LA,71047,CADDO PARISH,6.0,32.36407,-93.82575,327390
110015605665,"FORTERRA PIPE & PRECAST, LLC",211 MCREINE RD,LAPLACE,LA,70068,ST JOHN THE BAPTIST,6.0,30.05261,-90.46986,327390
110037492674,PAI READY MIX LLC - MANY PLANT,2409 TEXAS HWY,MANY,LA,71449,SABINE,6.0,31.5471,-93.51921,327390
110001252251,FIBREBOND CORP,1300 DAVENPORT DR,MINDEN,LA,71055,WEBSTER,6.0,32.600312,-93.299953,327390
110071732309,"FIVE STAR PRODUCTS, INC.",264 HORD ST,NEW ORLEANS,LA,70123,JEFFERSON PARISH,6.0,29.942765,-90.192062,327390
110001245153,US GYPSUM CO,5701 LEWIS ROAD,NEW ORLEANS,LA,70126,ORLEANS,6.0,30.02235,-90.02459,327390
110058902479,KING CONCRETE,3720 DESIRE PKWY,NEW ORLEANS,LA,70126,ORLEANS,6.0,29.996363,-90.0324,327390
110055589858,JAMES CONSTRUCTION GROUP LLC - BNC-011 CONCRETE PLANT,STATEWIDE,PORTABLE SOURCE,LA,70000,PORTABLE SOURCE,6.0,,,327390
110058896299,SOUTHERN CONCRETE PRODUCTS INC - CADDO BOSSIER PORT PLANT,DOUG ATTAWAY BLVD,SHREVEPORT,LA,70000,CADDO,6.0,32.35112,-93.6208,327390
110011186821,SI FUNERAL SERVICES,8650 BOX RD,SHREVEPORT,LA,71106,CADDO,6.0,32.40887,-93.75258,327390
110055589938,JAMES CONSTRUCTION GROUP LLC - BNC 10,STATEWIDE,STATEWIDE,LA,70000,PORTABLE SOURCE,6.0,,,327390
110013345442,CENTURY GROUP INC,1114 W. NAPOLEON ST.,SULPHUR,LA,70663,CALCASIEU,6.0,30.23581,-93.3895,327390
110043912861,SHEA CONCRETE PRODUCTS INC,87 HAVERHILL RD,AMESBURY,MA,01913,ESSEX,1.0,42.8429,-70.95434,327390
110003482491,NEW ENGLAND CONCRETE PRODUCTS,87 HAVERHILL RD,AMESBURY,MA,01913,ESSEX,1.0,42.8429,-70.95434,327390
110070822679,INTERRA INNOVATION INC,30 LOWELL JUNCTION RD,ANDOVER,MA,01810,ESSEX,1.0,42.61543,-71.16068,327390
110070156248,PORTLAND STONE WARE.CO,50 MCGRATH RD,DRACUT,MA,01826,MIDDLESEX COUNTY,1.0,42.70534,-71.24972,327390
110001958310,DEAN COLUMN INCORPORATED,210 UPHAM ST,FITCHBURG,MA,01420,WORCESTER,1.0,42.57965,-71.77715,327390
110072121789,SCITUATE CONCRETE PRODUCTS,120 CLAY PIT RD,MARSHFIELD,MA,02050,PLYMOUTH,1.0,42.11136,-70.71069,327390
110002017692,VITA-CRETE,12 SOUTH FREE ST,MILFORD,MA,01757,WORCESTER,1.0,42.14864,-71.50627,327390
110024351057,CHASE PRECAST DIV OF OLDCASTLE,70 EAST BROOKFIELD RD,NORTH BROOKFIELD,MA,01535,WORCESTER,1.0,42.24397,-72.072028,327390
110024342549,OLDCASTLE  PRECAST INCORPORTED,41 ALMEDIA ROAD,REHOBOTH,MA,02769,BRISTOL,1.0,41.78784,-71.29144,327390
110061151293,SHEA CONCRETE PRODUCTS - ROCHESTER,153 CRANBERRY HIGHWAY,ROCHESTER,MA,02770,PLYMOUTH,1.0,41.805571,-70.782872,327390
110046473142,NATGUN,11 TEAL RD,WAKEFIELD,MA,01880,MIDDLESEX,1.0,42.51719,-71.04757,327390
110003497966,OLD COLONY ENVELOPE,70 TURNPIKE INDUSTRIAL RD,WESTFIELD,MA,01085,HAMPDEN,1.0,42.15395,-72.74865,327390
110012166529,SHEA CONCRETE PRODUCTS INC,773 SALEM STREET,WILMINGTON,MA,01887,MIDDLESEX,1.0,42.58022,-71.13642,327390
110071394812,HENRY CAMOSSE AND SON,61 SOUTHWEST CUTOFF,WORCESTER,MA,01604,WORCESTER,,42.237324,-71.746542,327390
110022379433,"P. FLANIGAN - SONS, INC.",2444 LOCH RAVEN RD,BALTIMORE,MD,21230,BALTIMORE CITY,3.0,39.317533,-76.60768,327390
110000339633,"SIMPSON STRONG-TIE COMPANY, INC.",3100 FALLS CLIFF ROAD,BALTIMORE,MD,21211,BALTIMORE CITY,3.0,39.32587,-76.63206,327390
110002463833,THE UNITED STATES GYPSUM COMPANY - BALTIMORE PLANT,5500 QUARANTINE ROAD,BALTIMORE,MD,21226,BALTIMORE CITY,3.0,39.209749,-76.551048,327390
110039204009,"S & G CONCRETE COMPANY, LLC- GRANTLEY AVE. PLANT",3101 GRANTLEY AVENUE,BALTIMORE,MD,21215,BALTIMORE CITY,3.0,39.336,-76.67085,327390
110063965927,"S - G CONCRETE COMPANY, LLC- GRANTLEY AVE. PLANT",2110 PHILADELPHIA AVE,BALTIMORE,MD,21215,BALTIMORE CITY,3.0,39.44435,-76.31192,327390
110008490150,U.S. CONCRETE PRODUCTS,200 FRANKFURST AVE,BROOKLYN,MD,21225,BALTIMORE CITY,3.0,39.24168,-76.60269,327390
110014457355,OLDCASTLE PRECAST INC.,1401 TRIMBLE RD,EDGEWOOD,MD,21040,HARFORD,3.0,39.41596,-76.31632,327390
110060236800,"PERI FORMWORKS SYSTEMS, INC",7141 DORSEY RUN RD,ELKRIDGE,MD,21075,HOWARD,,39.174454,-76.756127,327390
110019905110,RINKER MATERIALS HYDRO CONDUIT- FREDERICK,1751 MONOCACY BLVD.,FREDERICK,MD,21701,FREDERICK,3.0,39.43557,-77.37636,327390
110001295223,RICHARDS-WILBERT INCORPORATED,16107 NATIONAL PIKE,HAGERSTOWN,MD,21740,WASHINGTON,3.0,39.65169,-77.81079,327390
110055483588,CATHEDRAL STONE PRODUCTS INC,7266 PARK CIRCLE DRIVE,HANOVER,MD,21076,ANNE ARUNDEL,3.0,39.17816,-76.73021,327390
110019858420,WILBERT & MONARCH VAULT WORKS,9939 WASHINGTON BOULAVARD,LAUREL,MD,20723,HOWARD,3.0,39.11237,-76.83518,327390
110071433344,QUIKRETE COMPANY,700 MOUNTAIN HILL RD,PERRYVILLE,MD,21903,CECIL,3.0,39.576387,-76.022379,327390
110024417406,QUIKRETE COMPANY,700 MOUNTAIN HILL RD.,PERRYVILLE,MD,21903,CECIL,3.0,39.57518,-76.0243,327390
110039679363,SUPERIOR CONCRETE,982 MINOT AVE,AUBURN,ME,04210,ANDROSCOGGIN,1.0,44.08099,-70.27036,327390
110002027388,"STATE CRUSHING, INC.",2260 AUBURN RD,AUBURN HILLS,MI,48326,OAKLAND,5.0,42.635223,-83.243367,327390
110001842579,FOGELSONGER VAULT  CO,1617 LEWIS ST MARQUETTE INDUST,BAY CITY,MI,48706,BAY,5.0,43.62061,-83.87014,327390
110007315011,PREMARC CONCRETE,5305 M-115,CADILLAC,MI,49601,WEXFORD,5.0,44.259801,-85.465081,327390
110021109334,ADC INC,320 E SEVEN MILE RD,DETROIT,MI,48202,WAYNE,5.0,42.432322,-83.100079,327390
110001853646,DORIC VAULT DETROIT INC,9189 CENTRAL ST,DETROIT,MI,48204,WAYNE,5.0,42.36335,-83.14629,327390
110064664867,PERFECTED GRAVE VAULT CO,1175 BURTON ST SE,GRAND RAPIDS,MI,49507,KENT,,42.92722,-85.63818,327390
110070260554,FLYING PIG COATINGS LLC,3529 3 MILE RD NW,GRAND RAPIDS,MI,49534,KENT,,43.01576,-85.75665,327390
110003706071,KERKSTRA PRECAST INC,3373 BUSCH DR SW,GRANDVILLE,MI,49418,KENT,5.0,42.92195,-85.74827,327390
110010392397,AJAX PAVING INDUSTRIES INC,TEMPORARY FACILITY,HOWELL,MI,48843,PORTABLE SOURCE,5.0,,,327390
110071704224,OLDCASTLE PRECAST,7800 ADOBE RD,KALAMAZOO,MI,49009,KALAMAZOO COUNTY,5.0,42.37413,-85.66036,327390
110031296434,GLOBAL INTEGRATED FLOORING SOLUTIONS,3700 32ND ST SE,KENTWOOD,MI,49512,KENT,5.0,42.90527,-85.57622,327390
110045403112,INTERNATIONAL PRECAST SOLUTIONS LLC,60 HALTINER AVE,RIVER ROUGE,MI,48218,WAYNE,5.0,42.27147,-83.13544,327390
110015683875,UNITED STATES GYPSUM,10090 WEST JEFFERSON,RIVER ROUGE,MI,48218,WAYNE,5.0,42.28033,-83.12917,327390
110038058437,ROSEVILLE CRUSHED CONCRETE,29765 GROSEBECK,ROSEVILLE,MI,48066,MACOMB,5.0,42.51385,-82.95422,327390
110001843612,SAGINAW WILBERT VAULT CORP,2810 HESS ST,SAGINAW,MI,48601,SAGINAW,5.0,43.40036,-83.92972,327390
110070938197,"MESSINA TRUCKING, INC.",6386 AUBURN ROAD,SHELBY TOWNSHIP,MI,48317,MACOMB COUNTY,5.0,42.6277,-83.0474,327390
110044976345,POLYCEM LLC,1271 JUDSON RD,SPRING LAKE,MI,49456,OTTAWA,5.0,43.12512,-86.21432,327390
110070880185,KERKSTRA PRECAST INC,1717 FORT ST,TRENTON,MI,48183,WAYNE COUNTY,5.0,42.15446,-83.18804,327390
110040949926,PITSCH WRECKING CO. - CONCRETE RECYCLING PLANT,200 NORTH PARK NW,WALKER,MI,49544,KENT,5.0,43.0272,-85.6549,327390
110001840660,"STATE CRUSHING, INC.-EAST",25501 SHERWOOD,WARREN,MI,48091,MACOMB,5.0,42.48138,-83.03885,327390
110070281289,OAKS CONCRETE PRODUCTS INC,51744 PONTIAC TRL,WIXOM,MI,48393,OAKLAND,5.0,42.526278,-83.560891,327390
110062747988,DOAN CONSTRUCTION-YPSILANTI,3660 CARPENTER RD,YPSILANTI,MI,48197,WASHTENAW,5.0,42.23709,-83.68025,327390
110063964456,ADC INC,,,MI,,MULTIPLE (PORTABLE FACILITIES),5.0,,,327390
110070060467,MID-AMERICAN GROUP,,,MI,,MULTIPLE (PORTABLE FACILITIES),5.0,,,327390
110071873186,"MESSINA TRUCKING, INC.",,,MI,,MULTIPLE (PORTABLE FACILITIES),5.0,,,327390
110063959177,PITSCH COMPANIES,,,MI,,MULTIPLE (PORTABLE FACILITIES),5.0,,,327390
110037602706,WELLS CONCRETE  ALBANY,210 INSPIRATION LN,ALBANY,MN,56307,STEARNS,5.0,45.61817,-94.558809,327390
110003812116,BROWN-WILBERT VAULT CO - AUSTIN,704 18TH AVE N W,AUSTIN,MN,55912,MOWER,5.0,43.68493,-92.982482,327390
110008801993,BELGRADE STEEL TANK CO INC,405 LOWERY AVE,BELGRADE,MN,56312,STEARNS,5.0,45.45332,-95.00563,327390
110057697826,"HANCOCK CONCRETE PRODUCTS, LLC",2020 COUNTY ROAD 29,CANNON FALLS,MN,55009,GOODHUE,5.0,44.527226,-92.913923,327390
110003931684,OLDCASTLE INFRASTRUCTURE INC. - COURTLAND,301 4TH ST,COURTLAND,MN,56021,KANDIYOHI,5.0,44.267434,-94.341861,327390
110071887709,NORTH AMERICAN PIPE & PRECAST,301 FOURTH STREET,COURTLAND,MN,56021,NICOLLET,5.0,44.26749,-94.34192,327390
110007097701,KOST BROS,"HWY 59, N OF HWY 10",DETROIT LAKES,MN,56502,BECKER,5.0,,,327390
110069320158,FORTERRA CONCRETE PRODUCTS - DULUTH,5789 OLD HIGHWAY 61,DULUTH,MN,55810,ST. LOUIS COUNTY,5.0,46.70714,-92.291539,327390
110069313068,FORTERRA CONCRETE PRODUCTS - ELK RIVER,1340 6TH ST NW,ELK RIVER,MN,55330,SHERBURNE,5.0,45.30794,-93.58092,327390
110001448265,HANCOCK CONCRETE PRODUCTS LLC - ATLANTIC AVE,17 ATLANTIC AVE,HANCOCK,MN,56244,STEVENS,5.0,45.492034,-95.787844,327390
110069313264,FORTERRA CONCRETE PRODUCTS - HAWLEY,401 MICHAEL ST S,HAWLEY,MN,56549,CLAY COUNTY,5.0,46.8722,-96.3293,327390
110070327460,BROWN-WILBERT INC - LAKEVILLE,22676 PILLSBURY AVE,LAKEVILLE,MN,55044,SCOTT COUNTY,5.0,44.62144,-93.2931,327390
110008818645,BROWN-WILBERT VAULT CO - LAKEVILLE,22616 PILLSBURY AVE,LAKEVILLE,MN,55044,DAKOTA,5.0,44.6214,-93.2965,327390
110058061644,BROWN-WILBERT VAULT CO - MANKATO,851 MADISON ST,MANKATO,MN,56001,BLUE EARTH,5.0,44.16753,-93.98547,327390
110000605989,SPANCRETE MIDWEST COMPANAY,10655 COUNTY RD. 81,MAPLE GROVE,MN,55369,HENNEPIN,5.0,45.121131,-93.416239,327390
110041860322,TCC MATERIALS - MEDFORD,8005 21ST AVE NW,MEDFORD,MN,55049,STEELE,5.0,44.1873,-93.24684,327390
110003778261,BROWN-WILBERT VAULT CO - MORRIS,513 E SEVENTH ST,MORRIS,MN,56267,STEVENS,5.0,45.59095,-95.9093,327390
110003778421,BROWN-WILBERT VAULT CO - REDWOOD FALLS,621 E PLUM ST,REDWOOD FALLS,MN,56283,REDWOOD,5.0,44.54312,-95.11107,327390
110068353454,TCC MATERIALS ROSEMOUNT,15051 BISCAYNE AVE W,ROSEMOUNT,MN,55068,DAKOTA,5.0,44.73106,-93.11613,327390
110003746484,BROWN-WILBERT VAULT CO - ROSEVILLE,2280 HAMLINE AVE N,ROSEVILLE,MN,55113,RAMSEY,5.0,45.010184,-93.156639,327390
110003778298,BROWN-WILBERT VAULT CO - ST CLOUD,3921 ROOSEVELT RD,SAINT CLOUD,MN,56301,STEARNS,5.0,45.50258,-94.15393,327390
110003720590,TWIN CITY CONCRETE PRODUCTS CO - SAINT PAUL,1351 TROUT BROOK CIR,SAINT PAUL,MN,55117,RAMSEY,5.0,44.982789,-93.098096,327390
110002339078,FABCON INC,6111 WEST HIGHWAY 13,SAVAGE,MN,55378,SCOTT,5.0,44.77783,-93.3575,327390
110069319473,FORTERRA CONCRETE PRODUCTS - SHAKOPEE,7070 CRETEX AVE S,SHAKOPEE,MN,55379,SCOTT COUNTY,5.0,44.793932,-93.428003,327390
110008696063,MNDAK CONCRETE INC DBA WELLS CONCRETE,12513 CENTER ST W,THIEF RIVER FALLS,MN,56701,PENNINGTON,5.0,48.0177,-96.3159,327390
110001446230,SEPPI BROS CONCRETE PRODUCTS - VIRGINIA,718 4TH STREET NORTH,VIRGINIA,MN,55792,SAINT LOUIS,5.0,47.526926,-92.542355,327390
110006043637,WELLS CONCRETE PRODUCTS CO,854 HWY 109 NE,WELLS,MN,56097,FARIBAULT,5.0,43.746399,-93.73691,327390
110068104269,WELLS CONCRETE PRODUCTS,854 HIGHWAY 109 NE,WELLS,MN,56097,RICE,5.0,43.747487,-93.718994,327390
110070274297,STERN WILLIAMS,102 W MAIN,CARTERVILLE,MO,64835,,7.0,37.149181,-94.442957,327390
110071871364,MATERIALS PACKAGING CORP,23018 S 291 HWY,HARRISONVILLE,MO,64701,CASS,7.0,38.58833,-94.33528,327390
110022831097,MATERIALS PACKAGING CORPORATION,23018 S HWY 291,HARRISONVILLE,MO,64701,CASS,7.0,38.701386,-94.370897,327390
110071781650,RINKER MATERIALS,21421 EAST TRUMAN ROAD,INDEPENDENCE,MO,64056,JACKSON,7.0,39.088342,-94.326152,327390
110071286164,FORTERRA PIPE & PRECAST - INDEPENDENCE,21421 E TRUMAN RD,INDEPENDENCE,MO,64056,JACKSON COUNTY,7.0,39.090379,-94.32665,327390
110017997541,"QUIKRETE HOLDINGS, INC.",1619 KATY ROAD,JEFFERSON CITY,MO,65101,COLE,7.0,38.54535,-92.22702,327390
110021360695,LONE WOLF ENTERPRISES-LONE WOLF ENTERPRISES,6923 E 39TH STREET,KANSAS CITY,MO,64129,JACKSON,7.0,39.05379,-94.50173,327390
110017994474,MONIERLIFETILE L L C,12600 E. 98 ST.,KANSAS CITY,MO,64138,JACKSON,7.0,38.94373,-94.43622,327390
110009888826,CORESLAB STRUCTURES MO INC.,1615 W. ARROW,MARSHALL,MO,65340,SALINE,7.0,39.121502,-93.220155,327390
110070547919,CTS CEMENT MANUFACTURING,23876 HIGHWAY J,MEXICO,MO,65265,AUDRAIN,7.0,39.199029,-91.864108,327390
110006736201,ROSE CONCRETE PRODUCTS,733 ROSE CON RD,SCOTT CITY,MO,63780,SCOTT,7.0,37.210554,-89.53628,327390
110058287562,OZARK WILBER VAULT - REPUBLIC,1501 SOUTH EMPIRE AVE,SPRINGFIELD,MO,65802,GREENE,7.0,37.190082,-93.428948,327390
110064269759,C J CONCRETE PRODUCTS INC,1400 E VETERANS MEMORIAL PKWY,WARRENTON,MO,63383,WARREN,7.0,38.81806,-91.12733,327390
110012306584,HANSON PIPE AND PRODUCTS SOUTHEAST INC,2377 HOLSTON ROAD,COMO,MS,38619,PANOLA,4.0,34.483611,-89.930278,327390
110001472601,HANSON PIPE AND PRECAST INC,1510 S. EDWARDS STREET,HATTIESBURG,MS,39401,FORREST,4.0,31.304222,-89.284083,327390
110020518215,HANSON PIPE & PRODUCTS SOUTHEAST INC HATTIESBURG,6934 HWY 49 NORTH,HATTIESBURG,MS,39402,FORREST,4.0,31.373694,-89.358472,327390
110038341826,F-S PRESTRESS LLC,25 PEPS POINT ROAD,HATTIESBURG,MS,39401,FORREST,4.0,31.39129,-89.37642,327390
110032824567,"HANSON PIPE & PRODUCTS, JACKSON SOUTH",6699 I-55 SOUTH,JACKSON,MS,39212,HINDS,4.0,32.1544,-90.27596,327390
110038340177,JACKSON PRECAST INC,3325 LAWSON STREET,JACKSON,MS,39213,HINDS,4.0,32.345315,-90.184789,327390
110002306576,"HANSON PIPE & PRODUCTS, JACKSON NORTH",2840 WEST NORTHSIDE DR,JACKSON,MS,39213,HINDS,4.0,32.35598,-90.22078,327390
110023128783,PRECISION PACKAGING INC,2805 METER RD,JACKSON,MS,39204,HINDS,4.0,32.266947,-90.206672,327390
110030451623,MACON SEPTIC SYSTEMS COMPANY INC,17678 HIGHWAY 45,MACON,MS,39341,NOXUBEE,4.0,33.137944,-88.551444,327390
110030451632,"TINDALL CORPORATION, MOSS POINT READY MIX",11457 SARACENNIA ROAD,MOSS POINT,MS,39562,JACKSON,4.0,30.511778,-88.494083,327390
110070247013,FORTERRA PIPE & PRECAST - PRENTISS,1650 JOHN STREET EXT,PRENTISS,MS,39474,JEFFERSON DAVIS COUNTY,4.0,31.602771,-89.888787,327390
110038358149,TUPELO WILBERT BURIAL VAULT,139 GODFREY ROAD,VERONA,MS,38879,LEE,4.0,34.163889,-88.709722,327390
110069312862,FORTERRA CONCRETE PRODUCTS - BILLINGS,1521 S 32ND ST W,BILLINGS,MT,59102,YELLOWSTONE COUNTY,8.0,45.74192,-108.59679,327390
110069319491,FORTERRA CONCRETE PRODUCTS - HELENA,2001 N BENTON AVE,HELENA,MT,59601,LEWIS AND CLARK COUNTY,8.0,46.60574,-112.04137,327390
110018845295,BENSON VENEER CO INCORPORATED,500 SOUTH MARKET STREET PO BOX 190,BENSON,NC,27504,JOHNSTON,4.0,35.3766,-78.55031,327390
110013793591,METROMONT PRESTRESS COMPANY,3940 GREENSBORO STREET,CHARLOTTE,NC,28206,MECKLENBURG,4.0,35.25417,-80.79566,327390
110001490592,METROMONT CORPORATION,4101 GREENSBORO STREET,CHARLOTTE,NC,28206,MECKLENBURG,4.0,35.254322,-80.794526,327390
110009716423,OLDCASTLE PRECAST INC - CONCORD,4905 STOUGH RD,CONCORD,NC,28027,CABARRUS,4.0,35.34809,-80.61212,327390
110038047574,"UTILITY PRECAST, INC.",1420 IVEY CLINE ROAD,CONCORD,NC,28027,CABARRUS,4.0,35.39391,-80.70499,327390
110070557675,OLDCASTLE PRECAST INC.,4905 STOUGH RD,CONCORD,NC,28027,CABARRUS COUNTY,4.0,35.34816,-80.6122,327390
110071947885,CONCRETE PIPE AND PRECAST - DENVER,4531 NC-16,DENVER,NC,28037,LINCOLN COUNTY,4.0,35.54516,-81.04915,327390
110005985791,OLDCASTLE INFRASTRUCTURE,3960 CEDAR CREEK ROAD,FAYETTEVILLE,NC,28301,CUMBERLAND,4.0,34.97797,-78.77221,327390
110071044104,SOUTHERN CONCRETE MATERIALS-PRECAST DIVISION,250 OLD HENDERSONVILLE RD,FLETCHER,NC,28732,HENDERSON COUNTY,4.0,35.405131,-82.50769,327390
110022522536,OLD CASTLE INFRASTRUCTURE,1431 PRODUCTS RD,FUQUAY VARINA,NC,27526,WAKE,4.0,35.598138,-78.77314,327390
110001490985,CAROLINA CAST STONE COMPANY INCORPORATED,1023 BOULDER ROAD,GREENSBORO,NC,27409,GUILFORD,4.0,36.06145,-79.93176,327390
110001486277,OLDCASTLE PRECAST INC,8408 WEST MARKET STREET,GREENSBORO,NC,27409,GUILFORD,4.0,36.09335,-79.96161,327390
110002381538,VARCO-PRUDEN BUILDINGS,1140 W. MOUNTAIN ST.,KERNERSVILLE,NC,27284,FORSYTH,4.0,36.136,-80.09694,327390
110001503356,"GAMEWELL SEPTIC TANK, INC.",1965 TANK HILL PLACE,LENOIR,NC,28645,CALDWELL,4.0,35.88407,-81.61474,327390
110006720913,"SHOAF PRECAST SEPTIC TANK, INC.",4130 U.S. HIGHWAY 64 WEST,LEXINGTON,NC,27295,DAVIDSON,4.0,35.858066,-80.337166,327390
110037983983,OLDCASTLE RETAIL INC (DBA BONSAL AMERICAN),351 HAILEYS FERRY RD,LILESVILLE,NC,28091,ANSON COUNTY,4.0,34.959495,-79.957461,327390
110009855709,WILBERT BURIAL VAULT CO,HIGHWAY 72 EAST PO BOX 934,LUMBERTON,NC,28359,ROBESON,4.0,34.6275,-79.0583,327390
110007123647,"KERRS HICKORY READY-MIXED CONCRETE CO., INC., MAIDEN PLANT",1625 WEST MAIDEN ROAD,MAIDEN,NC,28650,CATAWBA,4.0,35.5912,-81.24863,327390
110018514062,HAIRFIELD WILBERT BURIAL VAULT COMPANY,3098 MORGANTON FURNITURE,MORGANTON,NC,28655,BURKE,4.0,35.7208,-81.6411,327390
110009855665,"B & C CONCRETE PRODUCTS, INC.",228 NEW BRICKYARD ROAD,NORTH WILKESBORO,NC,28659,WILKES,4.0,36.15405,-81.18208,327390
110041095828,PLYCEM USA LLC - ALLURA (ROARING RIVER FACILITY),1149 ABTCO ROAD,NORTH WILKESBORO,NC,28659,WILKES,4.0,36.20024,-81.02961,327390
110071872294,"HAMBY BROTHERS, INC.",151 MAGNOLIA STREET,NORTH WILKESBORO,NC,28659,WILKES,4.0,36.155868,-81.169588,327390
110001503301,PLYCEM USA LLC,1149 ABTCO RD,NORTH WILKESBORO,NC,28659,WILKES,4.0,36.199131,-81.034545,327390
110007120196,"HAMBY BROTHERS, INC.",15 MAGNOLIA STREET,NORTH WILKESBORO,NC,28659,WILKES,4.0,36.15518,-81.16985,327390
110071947884,CONCRETE PIPE AND PRECAST,3800 OXFORD LOOP NE,OXFORD,NC,27565,GRANVILLE COUNTY,4.0,36.33528,-78.58972,327390
110001500359,GATE CONCRETE PRODUCTS COMPANY,3800 OXFORD LOOP,OXFORD,NC,27565,GRANVILLE,4.0,36.335928,-78.589466,327390
110007117798,THE QUIKRETE COMPANIES - PEACHLAND PLT,HIGHWAY 74 WEST,PEACHLAND,NC,28133,ANSON,4.0,34.988516,-80.297983,327390
110001488863,OLDCASTLE INFRASTRUCTURE,920 WITHERS RD,RALEIGH,NC,27603,WAKE,4.0,35.730426,-78.663486,327390
110043431006,"APAC-ATLANTIC, INC.-ASHEBORO CEMENT TREATED BASE (CTB) PLANT",2757 HOPEWOOD ROAD,RANDLEMAN,NC,27317,RANDOLPH,4.0,35.76926,-79.82595,327390
110002433769,SMITH - CAROLINA CORPORATION,2574 HWY 65 WEST,REIDSVILLE,NC,27320,ROCKINGHAM,4.0,36.386335,-79.809394,327390
110070061086,SMITH - CAROLINA CORPORATION,2574 HIGHWAY 65 WEST,REIDSVILLE,NC,27320,ROCKINGHAM,4.0,36.386944,-79.746667,327390
110020497381,"UNIQUE STONE, INC.",395 LEDBETTER RD,ROCKINGHAM,NC,28379,RICHMOND,4.0,34.97528,-79.71296,327390
110012146917,SOUTHEASTERN CONCRETE PRODUCTS OF N.C. L,2291 SALISBURY ROAD,STATESVILLE,NC,28677,IREDELL,4.0,35.75623,-80.81814,327390
110018773497,S & G PRESTRESS COMPANY,2295 BURNETT BOULEVARD,WILMINGTON,NC,28401,NEW HANOVER,4.0,34.19589,-77.94779,327390
110057013510,"HANCOCK CONCRETE PRODUCTS, LLC",7593 HWY 2 WEST,DEVILS LAKE,ND,58301,RAMSEY,8.0,48.16964,-98.98519,327390
110004070273,"MNDAK CONCRETE, INCORPORATED",5000 DEMERS AVENUE,GRAND FORKS,ND,58201,GRAND FORKS,8.0,47.918006,-97.103925,327390
